<?xml version="1.0" encoding="UTF-8"?>
<kml xmlns="http://www.opengis.net/kml/2.2"><Document>
, <Placemark>
<name>Ariel_University</name>
<description>Ariel_University</description>
<Point>
<coordinates>35.20871516537863,32.10450055146798</coordinates></Point>
</Placemark>
, <Placemark>
<name>Ariel_University</name>
<description>Ariel_University</description>
<Point>
<coordinates>35.20887019250685,32.10469253054429</coordinates></Point>
</Placemark>
, <Placemark>
<name>KCG_54</name>
<description>KCG_54</description>
<Point>
<coordinates>35.20887019250685,32.10469253054429</coordinates></Point>
</Placemark>
, <Placemark>
<name>CliClap</name>
<description>CliClap</description>
<Point>
<coordinates>35.2089785504828,32.10478367612144</coordinates></Point>
</Placemark>
, <Placemark>
<name></name>
<description></description>
<Point>
<coordinates>35.2089785504828,32.10478367612144</coordinates></Point>
</Placemark>
, <Placemark>
<name>HUAWEI_Grace_A9A9</name>
<description>HUAWEI_Grace_A9A9</description>
<Point>
<coordinates>35.2089785504828,32.10478367612144</coordinates></Point>
</Placemark>
, <Placemark>
<name></name>
<description></description>
<Point>
<coordinates>35.209108633384,32.104871317763454</coordinates></Point>
</Placemark>
, <Placemark>
<name>Ariel_University</name>
<description>Ariel_University</description>
<Point>
<coordinates>35.209108633384,32.104871317763454</coordinates></Point>
</Placemark>
, <Placemark>
<name>Ariel_University</name>
<description>Ariel_University</description>
<Point>
<coordinates>35.209108633384,32.104871317763454</coordinates></Point>
</Placemark>
, <Placemark>
<name>fortinet</name>
<description>fortinet</description>
<Point>
<coordinates>35.209108633384,32.104871317763454</coordinates></Point>
</Placemark>
, <Placemark>
<name>Ariel_University</name>
<description>Ariel_University</description>
<Point>
<coordinates>35.20923250014119,32.1049520118837</coordinates></Point>
</Placemark>
, <Placemark>
<name>Guest</name>
<description>Guest</description>
<Point>
<coordinates>35.20923250014119,32.1049520118837</coordinates></Point>
</Placemark>
, <Placemark>
<name>Afikim_Wifi</name>
<description>Afikim_Wifi</description>
<Point>
<coordinates>35.209319749765434,32.104998064745466</coordinates></Point>
</Placemark>
, <Placemark>
<name></name>
<description></description>
<Point>
<coordinates>35.209319749765434,32.104998064745466</coordinates></Point>
</Placemark>
, <Placemark>
<name>RelTele</name>
<description>RelTele</description>
<Point>
<coordinates>35.209392762298634,32.105034567826</coordinates></Point>
</Placemark>
, <Placemark>
<name>EVE</name>
<description>EVE</description>
<Point>
<coordinates>35.20920665474805,32.10531141498313</coordinates></Point>
</Placemark>
, <Placemark>
<name>artsim</name>
<description>artsim</description>
<Point>
<coordinates>35.20920665474805,32.10531141498313</coordinates></Point>
</Placemark>
, <Placemark>
<name>outsense</name>
<description>outsense</description>
<Point>
<coordinates>35.20920665474805,32.10531141498313</coordinates></Point>
</Placemark>
, <Placemark>
<name>restore</name>
<description>restore</description>
<Point>
<coordinates>35.20920665474805,32.10531141498313</coordinates></Point>
</Placemark>
, <Placemark>
<name>iAgree</name>
<description>iAgree</description>
<Point>
<coordinates>35.20920665474805,32.10531141498313</coordinates></Point>
</Placemark>
, <Placemark>
<name>iagree</name>
<description>iagree</description>
<Point>
<coordinates>35.20920665474805,32.10531141498313</coordinates></Point>
</Placemark>
, <Placemark>
<name>ShapeDo</name>
<description>ShapeDo</description>
<Point>
<coordinates>35.20898718804124,32.10522248019084</coordinates></Point>
</Placemark>
, <Placemark>
<name>Ariel_University</name>
<description>Ariel_University</description>
<Point>
<coordinates>35.208393287124416,32.104832184793686</coordinates></Point>
</Placemark>
, <Placemark>
<name></name>
<description></description>
<Point>
<coordinates>35.20810722607269,32.10471287020428</coordinates></Point>
</Placemark>
, <Placemark>
<name>Ariel_University</name>
<description>Ariel_University</description>
<Point>
<coordinates>35.20810722607269,32.10471287020428</coordinates></Point>
</Placemark>
, <Placemark>
<name>iAgree</name>
<description>iAgree</description>
<Point>
<coordinates>35.20810722607269,32.10471287020428</coordinates></Point>
</Placemark>
, <Placemark>
<name>Afikim_Wifi</name>
<description>Afikim_Wifi</description>
<Point>
<coordinates>35.20810722607269,32.10471287020428</coordinates></Point>
</Placemark>
, <Placemark>
<name></name>
<description></description>
<Point>
<coordinates>35.20810722607269,32.10471287020428</coordinates></Point>
</Placemark>
, <Placemark>
<name>Ariel_University</name>
<description>Ariel_University</description>
<Point>
<coordinates>35.20810722607269,32.10471287020428</coordinates></Point>
</Placemark>
, <Placemark>
<name>Afikim_Wifi</name>
<description>Afikim_Wifi</description>
<Point>
<coordinates>35.20794413153503,32.104677467333836</coordinates></Point>
</Placemark>
, <Placemark>
<name>HUAWEI_Grace_A9A9</name>
<description>HUAWEI_Grace_A9A9</description>
<Point>
<coordinates>35.20794413153503,32.104677467333836</coordinates></Point>
</Placemark>
, <Placemark>
<name>Ariel_University</name>
<description>Ariel_University</description>
<Point>
<coordinates>35.20794413153503,32.104677467333836</coordinates></Point>
</Placemark>
, <Placemark>
<name></name>
<description></description>
<Point>
<coordinates>35.20782902590236,32.104612231631535</coordinates></Point>
</Placemark>
, <Placemark>
<name>Ariel_University</name>
<description>Ariel_University</description>
<Point>
<coordinates>35.20782902590236,32.104612231631535</coordinates></Point>
</Placemark>
, <Placemark>
<name>Ariel_University</name>
<description>Ariel_University</description>
<Point>
<coordinates>35.20782902590236,32.104612231631535</coordinates></Point>
</Placemark>
, <Placemark>
<name>Ariel_University</name>
<description>Ariel_University</description>
<Point>
<coordinates>35.2078133561598,32.1044089716908</coordinates></Point>
</Placemark>
, <Placemark>
<name>Ariel_University</name>
<description>Ariel_University</description>
<Point>
<coordinates>35.2078133561598,32.1044089716908</coordinates></Point>
</Placemark>
, <Placemark>
<name>dlink</name>
<description>dlink</description>
<Point>
<coordinates>35.2078133561598,32.1044089716908</coordinates></Point>
</Placemark>
, <Placemark>
<name>Ariel_University</name>
<description>Ariel_University</description>
<Point>
<coordinates>35.2078133561598,32.1044089716908</coordinates></Point>
</Placemark>
, <Placemark>
<name>Ariel_University</name>
<description>Ariel_University</description>
<Point>
<coordinates>35.207823845055735,32.10412793606396</coordinates></Point>
</Placemark>
, <Placemark>
<name>Ariel_University</name>
<description>Ariel_University</description>
<Point>
<coordinates>35.207823845055735,32.10412793606396</coordinates></Point>
</Placemark>
, <Placemark>
<name>Ariel_University</name>
<description>Ariel_University</description>
<Point>
<coordinates>35.207820514922574,32.10386306362049</coordinates></Point>
</Placemark>
, <Placemark>
<name>Ariel_University</name>
<description>Ariel_University</description>
<Point>
<coordinates>35.207820514922574,32.10386306362049</coordinates></Point>
</Placemark>
, <Placemark>
<name>Ariel_University</name>
<description>Ariel_University</description>
<Point>
<coordinates>35.207820514922574,32.10386306362049</coordinates></Point>
</Placemark>
, <Placemark>
<name></name>
<description></description>
<Point>
<coordinates>35.207820514922574,32.10386306362049</coordinates></Point>
</Placemark>
, <Placemark>
<name></name>
<description></description>
<Point>
<coordinates>35.207820514922574,32.10386306362049</coordinates></Point>
</Placemark>
, <Placemark>
<name>Ariel_University</name>
<description>Ariel_University</description>
<Point>
<coordinates>35.20779971340078,32.1035895014822</coordinates></Point>
</Placemark>
, <Placemark>
<name></name>
<description></description>
<Point>
<coordinates>35.20779971340078,32.1035895014822</coordinates></Point>
</Placemark>
, <Placemark>
<name>Ariel_University</name>
<description>Ariel_University</description>
<Point>
<coordinates>35.20779971340078,32.1035895014822</coordinates></Point>
</Placemark>
, <Placemark>
<name>Ariel_University</name>
<description>Ariel_University</description>
<Point>
<coordinates>35.20779971340078,32.1035895014822</coordinates></Point>
</Placemark>
, <Placemark>
<name>Ariel_University</name>
<description>Ariel_University</description>
<Point>
<coordinates>35.20775858820422,32.10332310080681</coordinates></Point>
</Placemark>
, <Placemark>
<name>Ariel_University</name>
<description>Ariel_University</description>
<Point>
<coordinates>35.20775858820422,32.10332310080681</coordinates></Point>
</Placemark>
, <Placemark>
<name>Ariel_University</name>
<description>Ariel_University</description>
<Point>
<coordinates>35.20775858820422,32.10332310080681</coordinates></Point>
</Placemark>
, <Placemark>
<name>AUC_54_R</name>
<description>AUC_54_R</description>
<Point>
<coordinates>35.20775858820422,32.10332310080681</coordinates></Point>
</Placemark>
, <Placemark>
<name></name>
<description></description>
<Point>
<coordinates>35.20775858820422,32.10332310080681</coordinates></Point>
</Placemark>
, <Placemark>
<name>Ariel_University</name>
<description>Ariel_University</description>
<Point>
<coordinates>35.20775858820422,32.10332310080681</coordinates></Point>
</Placemark>
, <Placemark>
<name>Ariel_University</name>
<description>Ariel_University</description>
<Point>
<coordinates>35.20775858820422,32.10332310080681</coordinates></Point>
</Placemark>
, <Placemark>
<name>Ariel_University</name>
<description>Ariel_University</description>
<Point>
<coordinates>35.20772406469979,32.103075852635925</coordinates></Point>
</Placemark>
, <Placemark>
<name></name>
<description></description>
<Point>
<coordinates>35.20772406469979,32.103075852635925</coordinates></Point>
</Placemark>
, <Placemark>
<name>Ariel_University</name>
<description>Ariel_University</description>
<Point>
<coordinates>35.20772406469979,32.103075852635925</coordinates></Point>
</Placemark>
, <Placemark>
<name>Ariel_University</name>
<description>Ariel_University</description>
<Point>
<coordinates>35.20772406469979,32.103075852635925</coordinates></Point>
</Placemark>
, <Placemark>
<name>Ariel_University</name>
<description>Ariel_University</description>
<Point>
<coordinates>35.20772406469979,32.103075852635925</coordinates></Point>
</Placemark>
, <Placemark>
<name>Ariel_University</name>
<description>Ariel_University</description>
<Point>
<coordinates>35.20772406469979,32.103075852635925</coordinates></Point>
</Placemark>
, <Placemark>
<name>Ariel_University</name>
<description>Ariel_University</description>
<Point>
<coordinates>35.20772406469979,32.103075852635925</coordinates></Point>
</Placemark>
, <Placemark>
<name>Ariel_University</name>
<description>Ariel_University</description>
<Point>
<coordinates>35.20772406469979,32.103075852635925</coordinates></Point>
</Placemark>
, <Placemark>
<name>Ariel_University</name>
<description>Ariel_University</description>
<Point>
<coordinates>35.20772406469979,32.103075852635925</coordinates></Point>
</Placemark>
, <Placemark>
<name></name>
<description></description>
<Point>
<coordinates>35.20772406469979,32.103075852635925</coordinates></Point>
</Placemark>
, <Placemark>
<name></name>
<description></description>
<Point>
<coordinates>35.20764350575104,32.10284850334312</coordinates></Point>
</Placemark>
, <Placemark>
<name>Ariel_University</name>
<description>Ariel_University</description>
<Point>
<coordinates>35.20764350575104,32.10284850334312</coordinates></Point>
</Placemark>
, <Placemark>
<name></name>
<description></description>
<Point>
<coordinates>35.20764350575104,32.10284850334312</coordinates></Point>
</Placemark>
, <Placemark>
<name>Ariel_University</name>
<description>Ariel_University</description>
<Point>
<coordinates>35.20764350575104,32.10284850334312</coordinates></Point>
</Placemark>
, <Placemark>
<name>esimpex4G-013</name>
<description>esimpex4G-013</description>
<Point>
<coordinates>35.20753345326664,32.102690225045684</coordinates></Point>
</Placemark>
, <Placemark>
<name>Ariel_University</name>
<description>Ariel_University</description>
<Point>
<coordinates>35.20753345326664,32.102690225045684</coordinates></Point>
</Placemark>
, <Placemark>
<name>BEZEQINT-5E39</name>
<description>BEZEQINT-5E39</description>
<Point>
<coordinates>35.20753345326664,32.102690225045684</coordinates></Point>
</Placemark>
, <Placemark>
<name>LARISA</name>
<description>LARISA</description>
<Point>
<coordinates>35.20753345326664,32.102690225045684</coordinates></Point>
</Placemark>
, <Placemark>
<name>Moria</name>
<description>Moria</description>
<Point>
<coordinates>35.20753345326664,32.102690225045684</coordinates></Point>
</Placemark>
, <Placemark>
<name>Ariel_University</name>
<description>Ariel_University</description>
<Point>
<coordinates>35.20753345326664,32.102690225045684</coordinates></Point>
</Placemark>
, <Placemark>
<name>BEZEQINT-8831</name>
<description>BEZEQINT-8831</description>
<Point>
<coordinates>35.20753345326664,32.102690225045684</coordinates></Point>
</Placemark>
, <Placemark>
<name>Wirless-Afikim</name>
<description>Wirless-Afikim</description>
<Point>
<coordinates>35.20753345326664,32.102690225045684</coordinates></Point>
</Placemark>
, <Placemark>
<name>Bezeq Free AA107B</name>
<description>Bezeq Free AA107B</description>
<Point>
<coordinates>35.20753345326664,32.102690225045684</coordinates></Point>
</Placemark>
, <Placemark>
<name>Ariel_University</name>
<description>Ariel_University</description>
<Point>
<coordinates>35.20740977600141,32.102568605468115</coordinates></Point>
</Placemark>
, <Placemark>
<name>tanya</name>
<description>tanya</description>
<Point>
<coordinates>35.20740977600141,32.102568605468115</coordinates></Point>
</Placemark>
, <Placemark>
<name>Wirless-Afikim</name>
<description>Wirless-Afikim</description>
<Point>
<coordinates>35.20712582218295,32.102566301016374</coordinates></Point>
</Placemark>
, <Placemark>
<name>Knoch</name>
<description>Knoch</description>
<Point>
<coordinates>35.20712582218295,32.102566301016374</coordinates></Point>
</Placemark>
, <Placemark>
<name>Lidor a</name>
<description>Lidor a</description>
<Point>
<coordinates>35.20712582218295,32.102566301016374</coordinates></Point>
</Placemark>
, <Placemark>
<name>Ariel_University</name>
<description>Ariel_University</description>
<Point>
<coordinates>35.20712582218295,32.102566301016374</coordinates></Point>
</Placemark>
, <Placemark>
<name>norden</name>
<description>norden</description>
<Point>
<coordinates>35.20712582218295,32.102566301016374</coordinates></Point>
</Placemark>
, <Placemark>
<name>Ariel_University</name>
<description>Ariel_University</description>
<Point>
<coordinates>35.20671664499426,32.10265730477198</coordinates></Point>
</Placemark>
, <Placemark>
<name>Ariel_University</name>
<description>Ariel_University</description>
<Point>
<coordinates>35.20671664499426,32.10265730477198</coordinates></Point>
</Placemark>
, <Placemark>
<name>Ariel_University</name>
<description>Ariel_University</description>
<Point>
<coordinates>35.20671664499426,32.10265730477198</coordinates></Point>
</Placemark>
, <Placemark>
<name>Ariel_University</name>
<description>Ariel_University</description>
<Point>
<coordinates>35.206214299820765,32.10278191301597</coordinates></Point>
</Placemark>
, <Placemark>
<name></name>
<description></description>
<Point>
<coordinates>35.206214299820765,32.10278191301597</coordinates></Point>
</Placemark>
, <Placemark>
<name>AUC_54_R</name>
<description>AUC_54_R</description>
<Point>
<coordinates>35.206214299820765,32.10278191301597</coordinates></Point>
</Placemark>
, <Placemark>
<name>HOTBOX-C8A5</name>
<description>HOTBOX-C8A5</description>
<Point>
<coordinates>35.206214299820765,32.10278191301597</coordinates></Point>
</Placemark>
, <Placemark>
<name>Ariel_University</name>
<description>Ariel_University</description>
<Point>
<coordinates>35.206214299820765,32.10278191301597</coordinates></Point>
</Placemark>
, <Placemark>
<name></name>
<description></description>
<Point>
<coordinates>35.20565768713562,32.10291422537407</coordinates></Point>
</Placemark>
, <Placemark>
<name>elisusann947</name>
<description>elisusann947</description>
<Point>
<coordinates>35.20565768713562,32.10291422537407</coordinates></Point>
</Placemark>
, <Placemark>
<name>Wirless-Afikim</name>
<description>Wirless-Afikim</description>
<Point>
<coordinates>35.20565768713562,32.10291422537407</coordinates></Point>
</Placemark>
, <Placemark>
<name>Levin</name>
<description>Levin</description>
<Point>
<coordinates>35.20565768713562,32.10291422537407</coordinates></Point>
</Placemark>
, <Placemark>
<name>BezeqFree</name>
<description>BezeqFree</description>
<Point>
<coordinates>35.20565768713562,32.10291422537407</coordinates></Point>
</Placemark>
, <Placemark>
<name>Ariel_University</name>
<description>Ariel_University</description>
<Point>
<coordinates>35.20565768713562,32.10291422537407</coordinates></Point>
</Placemark>
, <Placemark>
<name>Ariel_University</name>
<description>Ariel_University</description>
<Point>
<coordinates>35.20565768713562,32.10291422537407</coordinates></Point>
</Placemark>
, <Placemark>
<name>TamiRacheli</name>
<description>TamiRacheli</description>
<Point>
<coordinates>35.20565768713562,32.10291422537407</coordinates></Point>
</Placemark>
, <Placemark>
<name>BezeqFree</name>
<description>BezeqFree</description>
<Point>
<coordinates>35.20565768713562,32.10291422537407</coordinates></Point>
</Placemark>
, <Placemark>
<name>Bezeq_k</name>
<description>Bezeq_k</description>
<Point>
<coordinates>35.20565768713562,32.10291422537407</coordinates></Point>
</Placemark>
, <Placemark>
<name>AUC_54_R</name>
<description>AUC_54_R</description>
<Point>
<coordinates>35.20505893729655,32.103018767648074</coordinates></Point>
</Placemark>
, <Placemark>
<name>HOTBOX-C8A5</name>
<description>HOTBOX-C8A5</description>
<Point>
<coordinates>35.20505893729655,32.103018767648074</coordinates></Point>
</Placemark>
, <Placemark>
<name>Ariel_University</name>
<description>Ariel_University</description>
<Point>
<coordinates>35.20505893729655,32.103018767648074</coordinates></Point>
</Placemark>
, <Placemark>
<name></name>
<description></description>
<Point>
<coordinates>35.204439121611976,32.10307195175604</coordinates></Point>
</Placemark>
, <Placemark>
<name>elisusann947</name>
<description>elisusann947</description>
<Point>
<coordinates>35.204439121611976,32.10307195175604</coordinates></Point>
</Placemark>
, <Placemark>
<name>Levin</name>
<description>Levin</description>
<Point>
<coordinates>35.204439121611976,32.10307195175604</coordinates></Point>
</Placemark>
, <Placemark>
<name>__ery</name>
<description>__ery</description>
<Point>
<coordinates>35.204439121611976,32.10307195175604</coordinates></Point>
</Placemark>
, <Placemark>
<name>BezeqFree</name>
<description>BezeqFree</description>
<Point>
<coordinates>35.204439121611976,32.10307195175604</coordinates></Point>
</Placemark>
, <Placemark>
<name>TamiRacheli</name>
<description>TamiRacheli</description>
<Point>
<coordinates>35.204439121611976,32.10307195175604</coordinates></Point>
</Placemark>
, <Placemark>
<name>BezeqFree</name>
<description>BezeqFree</description>
<Point>
<coordinates>35.204439121611976,32.10307195175604</coordinates></Point>
</Placemark>
, <Placemark>
<name>DIRECT-CHQUOVFmsxM</name>
<description>DIRECT-CHQUOVFmsxM</description>
<Point>
<coordinates>35.204439121611976,32.10307195175604</coordinates></Point>
</Placemark>
, <Placemark>
<name>Bezeq_k</name>
<description>Bezeq_k</description>
<Point>
<coordinates>35.204439121611976,32.10307195175604</coordinates></Point>
</Placemark>
, <Placemark>
<name>Ariel_University</name>
<description>Ariel_University</description>
<Point>
<coordinates>35.203801940101286,32.10309059589444</coordinates></Point>
</Placemark>
, <Placemark>
<name>BezeqFree</name>
<description>BezeqFree</description>
<Point>
<coordinates>35.203801940101286,32.10309059589444</coordinates></Point>
</Placemark>
, <Placemark>
<name>Ariel_University</name>
<description>Ariel_University</description>
<Point>
<coordinates>35.203801940101286,32.10309059589444</coordinates></Point>
</Placemark>
, <Placemark>
<name>Friends</name>
<description>Friends</description>
<Point>
<coordinates>35.203801940101286,32.10309059589444</coordinates></Point>
</Placemark>
, <Placemark>
<name>__ery</name>
<description>__ery</description>
<Point>
<coordinates>35.20316869586892,32.10305308473559</coordinates></Point>
</Placemark>
, <Placemark>
<name>Mock_Home</name>
<description>Mock_Home</description>
<Point>
<coordinates>35.20316869586892,32.10305308473559</coordinates></Point>
</Placemark>
, <Placemark>
<name>DIRECT-CHQUOVFmsxM</name>
<description>DIRECT-CHQUOVFmsxM</description>
<Point>
<coordinates>35.20316869586892,32.10305308473559</coordinates></Point>
</Placemark>
, <Placemark>
<name>Ariel_University</name>
<description>Ariel_University</description>
<Point>
<coordinates>35.20252166843886,32.102982171955205</coordinates></Point>
</Placemark>
, <Placemark>
<name>BezeqFree</name>
<description>BezeqFree</description>
<Point>
<coordinates>35.20252166843886,32.102982171955205</coordinates></Point>
</Placemark>
, <Placemark>
<name>Ariel_University</name>
<description>Ariel_University</description>
<Point>
<coordinates>35.20252166843886,32.102982171955205</coordinates></Point>
</Placemark>
, <Placemark>
<name>Ariel_University</name>
<description>Ariel_University</description>
<Point>
<coordinates>35.20252166843886,32.102982171955205</coordinates></Point>
</Placemark>
, <Placemark>
<name>Friends</name>
<description>Friends</description>
<Point>
<coordinates>35.20252166843886,32.102982171955205</coordinates></Point>
</Placemark>
, <Placemark>
<name>Mock_Home</name>
<description>Mock_Home</description>
<Point>
<coordinates>35.20186425902395,32.102880766362254</coordinates></Point>
</Placemark>
, <Placemark>
<name>Ariel_University</name>
<description>Ariel_University</description>
<Point>
<coordinates>35.20121270515258,32.10273178835577</coordinates></Point>
</Placemark>
, <Placemark>
<name>Ariel_University</name>
<description>Ariel_University</description>
<Point>
<coordinates>35.20121270515258,32.10273178835577</coordinates></Point>
</Placemark>
, <Placemark>
<name></name>
<description></description>
<Point>
<coordinates>35.20121270515258,32.10273178835577</coordinates></Point>
</Placemark>
, <Placemark>
<name></name>
<description></description>
<Point>
<coordinates>35.199991284351384,32.102303450881934</coordinates></Point>
</Placemark>
, <Placemark>
<name>miriamlevi</name>
<description>miriamlevi</description>
<Point>
<coordinates>35.1987244786369,32.10180500504678</coordinates></Point>
</Placemark>
, <Placemark>
<name></name>
<description></description>
<Point>
<coordinates>35.1987244786369,32.10180500504678</coordinates></Point>
</Placemark>
, <Placemark>
<name>shimon 5</name>
<description>shimon 5</description>
<Point>
<coordinates>35.1987244786369,32.10180500504678</coordinates></Point>
</Placemark>
, <Placemark>
<name>miriamlevi</name>
<description>miriamlevi</description>
<Point>
<coordinates>35.197499176149094,32.10134073510935</coordinates></Point>
</Placemark>
, <Placemark>
<name>shimon 5</name>
<description>shimon 5</description>
<Point>
<coordinates>35.197499176149094,32.10134073510935</coordinates></Point>
</Placemark>
, <Placemark>
<name></name>
<description></description>
<Point>
<coordinates>35.196085774815536,32.101306648239735</coordinates></Point>
</Placemark>
, <Placemark>
<name>EVGENY_2.4</name>
<description>EVGENY_2.4</description>
<Point>
<coordinates>35.1959182759934,32.10146953352985</coordinates></Point>
</Placemark>
, <Placemark>
<name>Bezeq Free</name>
<description>Bezeq Free</description>
<Point>
<coordinates>35.1959182759934,32.10146953352985</coordinates></Point>
</Placemark>
, <Placemark>
<name>Dikla_plus</name>
<description>Dikla_plus</description>
<Point>
<coordinates>35.1959182759934,32.10146953352985</coordinates></Point>
</Placemark>
, <Placemark>
<name>BezeqFree</name>
<description>BezeqFree</description>
<Point>
<coordinates>35.19569168784848,32.101544686849934</coordinates></Point>
</Placemark>
, <Placemark>
<name>TP-LINK_3C3E</name>
<description>TP-LINK_3C3E</description>
<Point>
<coordinates>35.195398251467545,32.10151277972388</coordinates></Point>
</Placemark>
, <Placemark>
<name>olesechka</name>
<description>olesechka</description>
<Point>
<coordinates>35.195398251467545,32.10151277972388</coordinates></Point>
</Placemark>
, <Placemark>
<name>tamir10</name>
<description>tamir10</description>
<Point>
<coordinates>35.19500965369143,32.10168853163328</coordinates></Point>
</Placemark>
, <Placemark>
<name>DOLEV_1</name>
<description>DOLEV_1</description>
<Point>
<coordinates>35.19500965369143,32.10168853163328</coordinates></Point>
</Placemark>
, <Placemark>
<name></name>
<description></description>
<Point>
<coordinates>35.19500965369143,32.10168853163328</coordinates></Point>
</Placemark>
, <Placemark>
<name>tamir10</name>
<description>tamir10</description>
<Point>
<coordinates>35.1937756999627,32.10237494524725</coordinates></Point>
</Placemark>
, <Placemark>
<name>DOLEV_1</name>
<description>DOLEV_1</description>
<Point>
<coordinates>35.1937756999627,32.10237494524725</coordinates></Point>
</Placemark>
, <Placemark>
<name>TP-LINK_3C3E</name>
<description>TP-LINK_3C3E</description>
<Point>
<coordinates>35.1937756999627,32.10237494524725</coordinates></Point>
</Placemark>
, <Placemark>
<name>olesechka</name>
<description>olesechka</description>
<Point>
<coordinates>35.1937756999627,32.10237494524725</coordinates></Point>
</Placemark>
, <Placemark>
<name></name>
<description></description>
<Point>
<coordinates>35.1937756999627,32.10237494524725</coordinates></Point>
</Placemark>
, <Placemark>
<name>Dani</name>
<description>Dani</description>
<Point>
<coordinates>35.1937756999627,32.10237494524725</coordinates></Point>
</Placemark>
, <Placemark>
<name></name>
<description></description>
<Point>
<coordinates>35.19238744374836,32.10294697485249</coordinates></Point>
</Placemark>
, <Placemark>
<name>Dani</name>
<description>Dani</description>
<Point>
<coordinates>35.19238744374836,32.10294697485249</coordinates></Point>
</Placemark>
, <Placemark>
<name>EnGenius1</name>
<description>EnGenius1</description>
<Point>
<coordinates>35.19163981485319,32.10313320676394</coordinates></Point>
</Placemark>
, <Placemark>
<name></name>
<description></description>
<Point>
<coordinates>35.190906441232116,32.10329283024751</coordinates></Point>
</Placemark>
, <Placemark>
<name>Bezeq Free</name>
<description>Bezeq Free</description>
<Point>
<coordinates>35.1901978622695,32.10342474517027</coordinates></Point>
</Placemark>
, <Placemark>
<name>EnGenius1</name>
<description>EnGenius1</description>
<Point>
<coordinates>35.1901978622695,32.10342474517027</coordinates></Point>
</Placemark>
, <Placemark>
<name>Lena014</name>
<description>Lena014</description>
<Point>
<coordinates>35.189512686687145,32.103535076404825</coordinates></Point>
</Placemark>
, <Placemark>
<name>nissenbaum</name>
<description>nissenbaum</description>
<Point>
<coordinates>35.189512686687145,32.103535076404825</coordinates></Point>
</Placemark>
, <Placemark>
<name>Bezeq Free</name>
<description>Bezeq Free</description>
<Point>
<coordinates>35.188842716807166,32.10363325357486</coordinates></Point>
</Placemark>
, <Placemark>
<name>Nur</name>
<description>Nur</description>
<Point>
<coordinates>35.18823991375659,32.10371595325607</coordinates></Point>
</Placemark>
, <Placemark>
<name>Home_2.4GHz</name>
<description>Home_2.4GHz</description>
<Point>
<coordinates>35.18823991375659,32.10371595325607</coordinates></Point>
</Placemark>
, <Placemark>
<name>orange-HJ8C1</name>
<description>orange-HJ8C1</description>
<Point>
<coordinates>35.18823991375659,32.10371595325607</coordinates></Point>
</Placemark>
, <Placemark>
<name>Lena014</name>
<description>Lena014</description>
<Point>
<coordinates>35.18823991375659,32.10371595325607</coordinates></Point>
</Placemark>
, <Placemark>
<name>Miri_and_Aya</name>
<description>Miri_and_Aya</description>
<Point>
<coordinates>35.18823991375659,32.10371595325607</coordinates></Point>
</Placemark>
, <Placemark>
<name>nissenbaum</name>
<description>nissenbaum</description>
<Point>
<coordinates>35.18823991375659,32.10371595325607</coordinates></Point>
</Placemark>
, <Placemark>
<name>egor_5</name>
<description>egor_5</description>
<Point>
<coordinates>35.18778570624045,32.10373679508557</coordinates></Point>
</Placemark>
, <Placemark>
<name>maria</name>
<description>maria</description>
<Point>
<coordinates>35.18778570624045,32.10373679508557</coordinates></Point>
</Placemark>
, <Placemark>
<name>Arnid_1</name>
<description>Arnid_1</description>
<Point>
<coordinates>35.18778570624045,32.10373679508557</coordinates></Point>
</Placemark>
, <Placemark>
<name>Afikim-WiFi</name>
<description>Afikim-WiFi</description>
<Point>
<coordinates>35.18750071583112,32.10379468557428</coordinates></Point>
</Placemark>
, <Placemark>
<name>BezeqFree</name>
<description>BezeqFree</description>
<Point>
<coordinates>35.18750071583112,32.10379468557428</coordinates></Point>
</Placemark>
, <Placemark>
<name>Nikolau_2.4</name>
<description>Nikolau_2.4</description>
<Point>
<coordinates>35.18750071583112,32.10379468557428</coordinates></Point>
</Placemark>
, <Placemark>
<name>Maria</name>
<description>Maria</description>
<Point>
<coordinates>35.18750071583112,32.10379468557428</coordinates></Point>
</Placemark>
, <Placemark>
<name>Bezeq Free 9F24C0</name>
<description>Bezeq Free 9F24C0</description>
<Point>
<coordinates>35.18750071583112,32.10379468557428</coordinates></Point>
</Placemark>
, <Placemark>
<name>EithereySky</name>
<description>EithereySky</description>
<Point>
<coordinates>35.18727060667903,32.10383577361083</coordinates></Point>
</Placemark>
, <Placemark>
<name>maria</name>
<description>maria</description>
<Point>
<coordinates>35.18727060667903,32.10383577361083</coordinates></Point>
</Placemark>
, <Placemark>
<name>PillMan1</name>
<description>PillMan1</description>
<Point>
<coordinates>35.18727060667903,32.10383577361083</coordinates></Point>
</Placemark>
, <Placemark>
<name>PESAH</name>
<description>PESAH</description>
<Point>
<coordinates>35.18727060667903,32.10383577361083</coordinates></Point>
</Placemark>
, <Placemark>
<name>Maria</name>
<description>Maria</description>
<Point>
<coordinates>35.18696089605741,32.103810316461434</coordinates></Point>
</Placemark>
, <Placemark>
<name>Bezeq_WiFi</name>
<description>Bezeq_WiFi</description>
<Point>
<coordinates>35.18696089605741,32.103810316461434</coordinates></Point>
</Placemark>
, <Placemark>
<name>Yuri</name>
<description>Yuri</description>
<Point>
<coordinates>35.18696089605741,32.103810316461434</coordinates></Point>
</Placemark>
, <Placemark>
<name>Zaga</name>
<description>Zaga</description>
<Point>
<coordinates>35.1865234327619,32.10377460844387</coordinates></Point>
</Placemark>
, <Placemark>
<name>Gross10</name>
<description>Gross10</description>
<Point>
<coordinates>35.18599612243589,32.10373322779655</coordinates></Point>
</Placemark>
, <Placemark>
<name>JACOBSON</name>
<description>JACOBSON</description>
<Point>
<coordinates>35.18599612243589,32.10373322779655</coordinates></Point>
</Placemark>
, <Placemark>
<name>maria</name>
<description>maria</description>
<Point>
<coordinates>35.18599612243589,32.10373322779655</coordinates></Point>
</Placemark>
, <Placemark>
<name>Nikolau_2.4</name>
<description>Nikolau_2.4</description>
<Point>
<coordinates>35.18599612243589,32.10373322779655</coordinates></Point>
</Placemark>
, <Placemark>
<name>Zaga</name>
<description>Zaga</description>
<Point>
<coordinates>35.18540806900288,32.10366914385604</coordinates></Point>
</Placemark>
, <Placemark>
<name>Yair_2GExt</name>
<description>Yair_2GExt</description>
<Point>
<coordinates>35.18540806900288,32.10366914385604</coordinates></Point>
</Placemark>
, <Placemark>
<name>Maria</name>
<description>Maria</description>
<Point>
<coordinates>35.18540806900288,32.10366914385604</coordinates></Point>
</Placemark>
, <Placemark>
<name>mohamad</name>
<description>mohamad</description>
<Point>
<coordinates>35.18540806900288,32.10366914385604</coordinates></Point>
</Placemark>
, <Placemark>
<name>Yair_5GExt</name>
<description>Yair_5GExt</description>
<Point>
<coordinates>35.18540806900288,32.10366914385604</coordinates></Point>
</Placemark>
, <Placemark>
<name>edi</name>
<description>edi</description>
<Point>
<coordinates>35.18540806900288,32.10366914385604</coordinates></Point>
</Placemark>
, <Placemark>
<name>BEZEQINT-8121</name>
<description>BEZEQINT-8121</description>
<Point>
<coordinates>35.18477835175067,32.10357949463759</coordinates></Point>
</Placemark>
, <Placemark>
<name>JACOBSON</name>
<description>JACOBSON</description>
<Point>
<coordinates>35.18477835175067,32.10357949463759</coordinates></Point>
</Placemark>
, <Placemark>
<name>Home WIFI</name>
<description>Home WIFI</description>
<Point>
<coordinates>35.18477835175067,32.10357949463759</coordinates></Point>
</Placemark>
, <Placemark>
<name>Kozvin_2</name>
<description>Kozvin_2</description>
<Point>
<coordinates>35.18477835175067,32.10357949463759</coordinates></Point>
</Placemark>
, <Placemark>
<name>Gross10</name>
<description>Gross10</description>
<Point>
<coordinates>35.18477835175067,32.10357949463759</coordinates></Point>
</Placemark>
, <Placemark>
<name>Genezia</name>
<description>Genezia</description>
<Point>
<coordinates>35.18477835175067,32.10357949463759</coordinates></Point>
</Placemark>
, <Placemark>
<name>Eyal</name>
<description>Eyal</description>
<Point>
<coordinates>35.18477835175067,32.10357949463759</coordinates></Point>
</Placemark>
, <Placemark>
<name>Yair_2GExt</name>
<description>Yair_2GExt</description>
<Point>
<coordinates>35.18411997604123,32.103437726246554</coordinates></Point>
</Placemark>
, <Placemark>
<name>310648837</name>
<description>310648837</description>
<Point>
<coordinates>35.18411997604123,32.103437726246554</coordinates></Point>
</Placemark>
, <Placemark>
<name>mohamad</name>
<description>mohamad</description>
<Point>
<coordinates>35.18411997604123,32.103437726246554</coordinates></Point>
</Placemark>
, <Placemark>
<name>Yair_5GExt</name>
<description>Yair_5GExt</description>
<Point>
<coordinates>35.18411997604123,32.103437726246554</coordinates></Point>
</Placemark>
, <Placemark>
<name>edi</name>
<description>edi</description>
<Point>
<coordinates>35.18411997604123,32.103437726246554</coordinates></Point>
</Placemark>
, <Placemark>
<name>Partner-4G-913D</name>
<description>Partner-4G-913D</description>
<Point>
<coordinates>35.18411997604123,32.103437726246554</coordinates></Point>
</Placemark>
, <Placemark>
<name>BEZEQINT-8121</name>
<description>BEZEQINT-8121</description>
<Point>
<coordinates>35.183428352284174,32.10324054649292</coordinates></Point>
</Placemark>
, <Placemark>
<name>Home WIFI</name>
<description>Home WIFI</description>
<Point>
<coordinates>35.183428352284174,32.10324054649292</coordinates></Point>
</Placemark>
, <Placemark>
<name>Kozvin_2</name>
<description>Kozvin_2</description>
<Point>
<coordinates>35.183428352284174,32.10324054649292</coordinates></Point>
</Placemark>
, <Placemark>
<name>Genezia</name>
<description>Genezia</description>
<Point>
<coordinates>35.183428352284174,32.10324054649292</coordinates></Point>
</Placemark>
, <Placemark>
<name>Eyal</name>
<description>Eyal</description>
<Point>
<coordinates>35.183428352284174,32.10324054649292</coordinates></Point>
</Placemark>
, <Placemark>
<name>310648837</name>
<description>310648837</description>
<Point>
<coordinates>35.182733440592536,32.103008322867446</coordinates></Point>
</Placemark>
, <Placemark>
<name>Partner-4G-913D</name>
<description>Partner-4G-913D</description>
<Point>
<coordinates>35.182733440592536,32.103008322867446</coordinates></Point>
</Placemark>
, <Placemark>
<name>HP-Print-8E-LaserJet Pro MFP</name>
<description>HP-Print-8E-LaserJet Pro MFP</description>
<Point>
<coordinates>35.182733440592536,32.103008322867446</coordinates></Point>
</Placemark>
, <Placemark>
<name>BezeqFree</name>
<description>BezeqFree</description>
<Point>
<coordinates>35.1820437864574,32.102760017207494</coordinates></Point>
</Placemark>
, <Placemark>
<name>Sheli lo lagyat 1</name>
<description>Sheli lo lagyat 1</description>
<Point>
<coordinates>35.1820437864574,32.102760017207494</coordinates></Point>
</Placemark>
, <Placemark>
<name>HP-Print-8E-LaserJet Pro MFP</name>
<description>HP-Print-8E-LaserJet Pro MFP</description>
<Point>
<coordinates>35.181322051273796,32.10256548658186</coordinates></Point>
</Placemark>
, <Placemark>
<name>Yossif01</name>
<description>Yossif01</description>
<Point>
<coordinates>35.181322051273796,32.10256548658186</coordinates></Point>
</Placemark>
, <Placemark>
<name>sivan2014</name>
<description>sivan2014</description>
<Point>
<coordinates>35.181322051273796,32.10256548658186</coordinates></Point>
</Placemark>
, <Placemark>
<name>BezeqFree</name>
<description>BezeqFree</description>
<Point>
<coordinates>35.181322051273796,32.10256548658186</coordinates></Point>
</Placemark>
, <Placemark>
<name>BezeqFree</name>
<description>BezeqFree</description>
<Point>
<coordinates>35.18061597011759,32.102469261532356</coordinates></Point>
</Placemark>
, <Placemark>
<name>Sheli lo lagyat 1</name>
<description>Sheli lo lagyat 1</description>
<Point>
<coordinates>35.18061597011759,32.102469261532356</coordinates></Point>
</Placemark>
, <Placemark>
<name>Yossif01</name>
<description>Yossif01</description>
<Point>
<coordinates>35.17998267446694,32.102493840846414</coordinates></Point>
</Placemark>
, <Placemark>
<name>sivan2014</name>
<description>sivan2014</description>
<Point>
<coordinates>35.17998267446694,32.102493840846414</coordinates></Point>
</Placemark>
, <Placemark>
<name>WWW</name>
<description>WWW</description>
<Point>
<coordinates>35.17998267446694,32.102493840846414</coordinates></Point>
</Placemark>
, <Placemark>
<name>BezeqFree</name>
<description>BezeqFree</description>
<Point>
<coordinates>35.17998267446694,32.102493840846414</coordinates></Point>
</Placemark>
, <Placemark>
<name>BSPOT32DB_2EX</name>
<description>BSPOT32DB_2EX</description>
<Point>
<coordinates>35.17948650051059,32.10257446391346</coordinates></Point>
</Placemark>
, <Placemark>
<name>leonid</name>
<description>leonid</description>
<Point>
<coordinates>35.17948650051059,32.10257446391346</coordinates></Point>
</Placemark>
, <Placemark>
<name>WWW</name>
<description>WWW</description>
<Point>
<coordinates>35.178888770914334,32.102757023509525</coordinates></Point>
</Placemark>
, <Placemark>
<name>Anna</name>
<description>Anna</description>
<Point>
<coordinates>35.178888770914334,32.102757023509525</coordinates></Point>
</Placemark>
, <Placemark>
<name>TP-LINK_385F</name>
<description>TP-LINK_385F</description>
<Point>
<coordinates>35.178603447180684,32.10269010041184</coordinates></Point>
</Placemark>
, <Placemark>
<name>Yaakov</name>
<description>Yaakov</description>
<Point>
<coordinates>35.17700249019612,32.10263128397143</coordinates></Point>
</Placemark>
, <Placemark>
<name>TP-LINK_385F</name>
<description>TP-LINK_385F</description>
<Point>
<coordinates>35.17700249019612,32.10263128397143</coordinates></Point>
</Placemark>
, <Placemark>
<name>BezeqFree</name>
<description>BezeqFree</description>
<Point>
<coordinates>35.176367666045174,32.10252810743328</coordinates></Point>
</Placemark>
, <Placemark>
<name>Agasi55</name>
<description>Agasi55</description>
<Point>
<coordinates>35.176367666045174,32.10252810743328</coordinates></Point>
</Placemark>
, <Placemark>
<name>Yaakov</name>
<description>Yaakov</description>
<Point>
<coordinates>35.17573253624664,32.10240356240194</coordinates></Point>
</Placemark>
, <Placemark>
<name>Meitus1</name>
<description>Meitus1</description>
<Point>
<coordinates>35.17573253624664,32.10240356240194</coordinates></Point>
</Placemark>
, <Placemark>
<name>BEZEQINT-ACD1</name>
<description>BEZEQINT-ACD1</description>
<Point>
<coordinates>35.17573253624664,32.10240356240194</coordinates></Point>
</Placemark>
, <Placemark>
<name>rachel1_2.4</name>
<description>rachel1_2.4</description>
<Point>
<coordinates>35.17573253624664,32.10240356240194</coordinates></Point>
</Placemark>
, <Placemark>
<name>Adi</name>
<description>Adi</description>
<Point>
<coordinates>35.17573253624664,32.10240356240194</coordinates></Point>
</Placemark>
, <Placemark>
<name>GVNM1</name>
<description>GVNM1</description>
<Point>
<coordinates>35.175161344759665,32.102178826617035</coordinates></Point>
</Placemark>
, <Placemark>
<name>BezeqFree</name>
<description>BezeqFree</description>
<Point>
<coordinates>35.175161344759665,32.102178826617035</coordinates></Point>
</Placemark>
, <Placemark>
<name>Partner-4G-86C7</name>
<description>Partner-4G-86C7</description>
<Point>
<coordinates>35.175161344759665,32.102178826617035</coordinates></Point>
</Placemark>
, <Placemark>
<name>Agasi55</name>
<description>Agasi55</description>
<Point>
<coordinates>35.175161344759665,32.102178826617035</coordinates></Point>
</Placemark>
, <Placemark>
<name>lusil</name>
<description>lusil</description>
<Point>
<coordinates>35.175161344759665,32.102178826617035</coordinates></Point>
</Placemark>
, <Placemark>
<name>Meitus1</name>
<description>Meitus1</description>
<Point>
<coordinates>35.174627296411906,32.10193415884006</coordinates></Point>
</Placemark>
, <Placemark>
<name>BEZEQINT-ACD1</name>
<description>BEZEQINT-ACD1</description>
<Point>
<coordinates>35.174627296411906,32.10193415884006</coordinates></Point>
</Placemark>
, <Placemark>
<name>rachel1_2.4</name>
<description>rachel1_2.4</description>
<Point>
<coordinates>35.174627296411906,32.10193415884006</coordinates></Point>
</Placemark>
, <Placemark>
<name>madlen</name>
<description>madlen</description>
<Point>
<coordinates>35.174627296411906,32.10193415884006</coordinates></Point>
</Placemark>
, <Placemark>
<name>DUSHI_2.4</name>
<description>DUSHI_2.4</description>
<Point>
<coordinates>35.174627296411906,32.10193415884006</coordinates></Point>
</Placemark>
, <Placemark>
<name>Partner-4G-D857</name>
<description>Partner-4G-D857</description>
<Point>
<coordinates>35.174627296411906,32.10193415884006</coordinates></Point>
</Placemark>
, <Placemark>
<name>Bezeq Free DA0B2D</name>
<description>Bezeq Free DA0B2D</description>
<Point>
<coordinates>35.174627296411906,32.10193415884006</coordinates></Point>
</Placemark>
, <Placemark>
<name>omer</name>
<description>omer</description>
<Point>
<coordinates>35.174627296411906,32.10193415884006</coordinates></Point>
</Placemark>
, <Placemark>
<name>Adi</name>
<description>Adi</description>
<Point>
<coordinates>35.174627296411906,32.10193415884006</coordinates></Point>
</Placemark>
, <Placemark>
<name>RHN</name>
<description>RHN</description>
<Point>
<coordinates>35.174627296411906,32.10193415884006</coordinates></Point>
</Placemark>
, <Placemark>
<name>oleg</name>
<description>oleg</description>
<Point>
<coordinates>35.174169746059135,32.10171389277922</coordinates></Point>
</Placemark>
, <Placemark>
<name>BezeqFree</name>
<description>BezeqFree</description>
<Point>
<coordinates>35.174169746059135,32.10171389277922</coordinates></Point>
</Placemark>
, <Placemark>
<name>GVNM1</name>
<description>GVNM1</description>
<Point>
<coordinates>35.173895370355325,32.101651061263475</coordinates></Point>
</Placemark>
, <Placemark>
<name>Mama</name>
<description>Mama</description>
<Point>
<coordinates>35.173895370355325,32.101651061263475</coordinates></Point>
</Placemark>
, <Placemark>
<name>HOTFiber-galay</name>
<description>HOTFiber-galay</description>
<Point>
<coordinates>35.173643973666934,32.10163621128015</coordinates></Point>
</Placemark>
, <Placemark>
<name>ilya</name>
<description>ilya</description>
<Point>
<coordinates>35.173643973666934,32.10163621128015</coordinates></Point>
</Placemark>
, <Placemark>
<name>kingking</name>
<description>kingking</description>
<Point>
<coordinates>35.173483956324574,32.10143363012406</coordinates></Point>
</Placemark>
, <Placemark>
<name>RHN</name>
<description>RHN</description>
<Point>
<coordinates>35.173483956324574,32.10143363012406</coordinates></Point>
</Placemark>
, <Placemark>
<name>TP-link-7619</name>
<description>TP-link-7619</description>
<Point>
<coordinates>35.173483956324574,32.10143363012406</coordinates></Point>
</Placemark>
, <Placemark>
<name>aleader</name>
<description>aleader</description>
<Point>
<coordinates>35.17150506511201,32.10053376923604</coordinates></Point>
</Placemark>
, <Placemark>
<name>Dira 3</name>
<description>Dira 3</description>
<Point>
<coordinates>35.17150506511201,32.10053376923604</coordinates></Point>
</Placemark>
, <Placemark>
<name>Leaders_Guest</name>
<description>Leaders_Guest</description>
<Point>
<coordinates>35.17150506511201,32.10053376923604</coordinates></Point>
</Placemark>
, <Placemark>
<name>Leaders_Guest</name>
<description>Leaders_Guest</description>
<Point>
<coordinates>35.17083955764145,32.100280165762435</coordinates></Point>
</Placemark>
, <Placemark>
<name>aleader</name>
<description>aleader</description>
<Point>
<coordinates>35.17083955764145,32.100280165762435</coordinates></Point>
</Placemark>
, <Placemark>
<name>nizatwifi</name>
<description>nizatwifi</description>
<Point>
<coordinates>35.17083955764145,32.100280165762435</coordinates></Point>
</Placemark>
, <Placemark>
<name>HIDE</name>
<description>HIDE</description>
<Point>
<coordinates>35.17083955764145,32.100280165762435</coordinates></Point>
</Placemark>
, <Placemark>
<name>Dira 3</name>
<description>Dira 3</description>
<Point>
<coordinates>35.17011428575321,32.100106823849686</coordinates></Point>
</Placemark>
, <Placemark>
<name>Leaders_Guest</name>
<description>Leaders_Guest</description>
<Point>
<coordinates>35.169377525917554,32.10002241220201</coordinates></Point>
</Placemark>
, <Placemark>
<name>aleader</name>
<description>aleader</description>
<Point>
<coordinates>35.169377525917554,32.10002241220201</coordinates></Point>
</Placemark>
, <Placemark>
<name>nizatwifi</name>
<description>nizatwifi</description>
<Point>
<coordinates>35.169377525917554,32.10002241220201</coordinates></Point>
</Placemark>
, <Placemark>
<name>HIDE</name>
<description>HIDE</description>
<Point>
<coordinates>35.169377525917554,32.10002241220201</coordinates></Point>
</Placemark>
, <Placemark>
<name>lxm2008</name>
<description>lxm2008</description>
<Point>
<coordinates>35.168668179473755,32.100015640454096</coordinates></Point>
</Placemark>
, <Placemark>
<name>lxm2008</name>
<description>lxm2008</description>
<Point>
<coordinates>35.16733337467621,32.100178833296454</coordinates></Point>
</Placemark>
, <Placemark>
<name>DAP-1360</name>
<description>DAP-1360</description>
<Point>
<coordinates>35.16670214770684,32.100344167727464</coordinates></Point>
</Placemark>
, <Placemark>
<name>mica</name>
<description>mica</description>
<Point>
<coordinates>35.16608625870654,32.100545223068664</coordinates></Point>
</Placemark>
, <Placemark>
<name>BezeqFree</name>
<description>BezeqFree</description>
<Point>
<coordinates>35.16608625870654,32.100545223068664</coordinates></Point>
</Placemark>
, <Placemark>
<name>DAP-1360</name>
<description>DAP-1360</description>
<Point>
<coordinates>35.16548937560711,32.10083765883273</coordinates></Point>
</Placemark>
, <Placemark>
<name>BezeqFree</name>
<description>BezeqFree</description>
<Point>
<coordinates>35.16490505521543,32.10121262478728</coordinates></Point>
</Placemark>
, <Placemark>
<name>mica</name>
<description>mica</description>
<Point>
<coordinates>35.16490505521543,32.10121262478728</coordinates></Point>
</Placemark>
, <Placemark>
<name>Partner-4G-739C</name>
<description>Partner-4G-739C</description>
<Point>
<coordinates>35.16530774363696,32.10772912174353</coordinates></Point>
</Placemark>
, <Placemark>
<name>TP-LINK_E9A406</name>
<description>TP-LINK_E9A406</description>
<Point>
<coordinates>35.16530774363696,32.10772912174353</coordinates></Point>
</Placemark>
, <Placemark>
<name>Partner-4G-7D9C</name>
<description>Partner-4G-7D9C</description>
<Point>
<coordinates>35.16530774363696,32.10772912174353</coordinates></Point>
</Placemark>
, <Placemark>
<name>Dr shadi</name>
<description>Dr shadi</description>
<Point>
<coordinates>35.16548774969867,32.10821120741191</coordinates></Point>
</Placemark>
, <Placemark>
<name>androp </name>
<description>androp </description>
<Point>
<coordinates>35.16555813952939,32.108883926112064</coordinates></Point>
</Placemark>
, <Placemark>
<name></name>
<description></description>
<Point>
<coordinates>35.16555813952939,32.108883926112064</coordinates></Point>
</Placemark>
, <Placemark>
<name>Partner-4G-739C</name>
<description>Partner-4G-739C</description>
<Point>
<coordinates>35.16555813952939,32.108883926112064</coordinates></Point>
</Placemark>
, <Placemark>
<name></name>
<description></description>
<Point>
<coordinates>35.14943353297436,32.10908383770315</coordinates></Point>
</Placemark>
, <Placemark>
<name>Afikim_Wifi</name>
<description>Afikim_Wifi</description>
<Point>
<coordinates>35.14943353297436,32.10908383770315</coordinates></Point>
</Placemark>
, <Placemark>
<name>Egged.co.il</name>
<description>Egged.co.il</description>
<Point>
<coordinates>35.14828156734378,32.10915142713788</coordinates></Point>
</Placemark>
, <Placemark>
<name></name>
<description></description>
<Point>
<coordinates>35.14828156734378,32.10915142713788</coordinates></Point>
</Placemark>
, <Placemark>
<name>Afikim_Wifi</name>
<description>Afikim_Wifi</description>
<Point>
<coordinates>35.14828156734378,32.10915142713788</coordinates></Point>
</Placemark>
, <Placemark>
<name>Egged.co.il</name>
<description>Egged.co.il</description>
<Point>
<coordinates>35.14714090478281,32.1092663696461</coordinates></Point>
</Placemark>
, <Placemark>
<name></name>
<description></description>
<Point>
<coordinates>35.14714090478281,32.1092663696461</coordinates></Point>
</Placemark>
, <Placemark>
<name>Afikim_Wifi</name>
<description>Afikim_Wifi</description>
<Point>
<coordinates>35.14714090478281,32.1092663696461</coordinates></Point>
</Placemark>
, <Placemark>
<name>Egged.co.il</name>
<description>Egged.co.il</description>
<Point>
<coordinates>35.14602204510376,32.10937759610835</coordinates></Point>
</Placemark>
, <Placemark>
<name>Afikim_Wifi</name>
<description>Afikim_Wifi</description>
<Point>
<coordinates>35.14602204510376,32.10937759610835</coordinates></Point>
</Placemark>
, <Placemark>
<name></name>
<description></description>
<Point>
<coordinates>35.14602204510376,32.10937759610835</coordinates></Point>
</Placemark>
, <Placemark>
<name>Afikim_Wifi</name>
<description>Afikim_Wifi</description>
<Point>
<coordinates>35.14494508771717,32.10946156467159</coordinates></Point>
</Placemark>
, <Placemark>
<name></name>
<description></description>
<Point>
<coordinates>35.14494508771717,32.10946156467159</coordinates></Point>
</Placemark>
, <Placemark>
<name>Egged.co.il</name>
<description>Egged.co.il</description>
<Point>
<coordinates>35.14494508771717,32.10946156467159</coordinates></Point>
</Placemark>
, <Placemark>
<name>Egged.co.il</name>
<description>Egged.co.il</description>
<Point>
<coordinates>35.1439439673564,32.10952446180822</coordinates></Point>
</Placemark>
, <Placemark>
<name>Afikim_Wifi</name>
<description>Afikim_Wifi</description>
<Point>
<coordinates>35.1439439673564,32.10952446180822</coordinates></Point>
</Placemark>
, <Placemark>
<name></name>
<description></description>
<Point>
<coordinates>35.1439439673564,32.10952446180822</coordinates></Point>
</Placemark>
, <Placemark>
<name>Afikim_Wifi</name>
<description>Afikim_Wifi</description>
<Point>
<coordinates>35.14206753978594,32.10958475320672</coordinates></Point>
</Placemark>
, <Placemark>
<name></name>
<description></description>
<Point>
<coordinates>35.14206753978594,32.10958475320672</coordinates></Point>
</Placemark>
, <Placemark>
<name>Egged.co.il</name>
<description>Egged.co.il</description>
<Point>
<coordinates>35.14206753978594,32.10958475320672</coordinates></Point>
</Placemark>
, <Placemark>
<name>Afikim_Wifi</name>
<description>Afikim_Wifi</description>
<Point>
<coordinates>35.14027266960471,32.10944388921187</coordinates></Point>
</Placemark>
, <Placemark>
<name></name>
<description></description>
<Point>
<coordinates>35.14027266960471,32.10944388921187</coordinates></Point>
</Placemark>
, <Placemark>
<name>Egged.co.il</name>
<description>Egged.co.il</description>
<Point>
<coordinates>35.14027266960471,32.10944388921187</coordinates></Point>
</Placemark>
, <Placemark>
<name>Egged.co.il</name>
<description>Egged.co.il</description>
<Point>
<coordinates>35.138484353050025,32.10909707025462</coordinates></Point>
</Placemark>
, <Placemark>
<name>Egged.co.il</name>
<description>Egged.co.il</description>
<Point>
<coordinates>35.13672020322781,32.10844597196075</coordinates></Point>
</Placemark>
, <Placemark>
<name>HUAWEI_RIO_726C</name>
<description>HUAWEI_RIO_726C</description>
<Point>
<coordinates>35.13205379988217,32.10636925138938</coordinates></Point>
</Placemark>
, <Placemark>
<name>HUAWEI_RIO_726C</name>
<description>HUAWEI_RIO_726C</description>
<Point>
<coordinates>35.130218666649775,32.105527938508004</coordinates></Point>
</Placemark>
, <Placemark>
<name></name>
<description></description>
<Point>
<coordinates>35.12851940903937,32.104672862165955</coordinates></Point>
</Placemark>
, <Placemark>
<name></name>
<description></description>
<Point>
<coordinates>35.12694691644766,32.103688465706945</coordinates></Point>
</Placemark>
, <Placemark>
<name>TP-LINK_E2EEFA</name>
<description>TP-LINK_E2EEFA</description>
<Point>
<coordinates>35.12450726045681,32.10213380238055</coordinates></Point>
</Placemark>
, <Placemark>
<name>Logistics</name>
<description>Logistics</description>
<Point>
<coordinates>35.1236631984712,32.10157332381472</coordinates></Point>
</Placemark>
, <Placemark>
<name></name>
<description></description>
<Point>
<coordinates>35.1236631984712,32.10157332381472</coordinates></Point>
</Placemark>
, <Placemark>
<name>TP-LINK_E2EEFA</name>
<description>TP-LINK_E2EEFA</description>
<Point>
<coordinates>35.12278529370637,32.10102108886685</coordinates></Point>
</Placemark>
, <Placemark>
<name>Logistics</name>
<description>Logistics</description>
<Point>
<coordinates>35.12185070750578,32.10050757546482</coordinates></Point>
</Placemark>
, <Placemark>
<name></name>
<description></description>
<Point>
<coordinates>35.12185070750578,32.10050757546482</coordinates></Point>
</Placemark>
, <Placemark>
<name></name>
<description></description>
<Point>
<coordinates>35.12185070750578,32.10050757546482</coordinates></Point>
</Placemark>
, <Placemark>
<name>TP-LINK_E2EEFA</name>
<description>TP-LINK_E2EEFA</description>
<Point>
<coordinates>35.12086559919591,32.09999102368684</coordinates></Point>
</Placemark>
, <Placemark>
<name>portthru</name>
<description>portthru</description>
<Point>
<coordinates>35.12086559919591,32.09999102368684</coordinates></Point>
</Placemark>
, <Placemark>
<name></name>
<description></description>
<Point>
<coordinates>35.11987167472511,32.09947746838805</coordinates></Point>
</Placemark>
, <Placemark>
<name>Logistics</name>
<description>Logistics</description>
<Point>
<coordinates>35.11987167472511,32.09947746838805</coordinates></Point>
</Placemark>
, <Placemark>
<name></name>
<description></description>
<Point>
<coordinates>35.11987167472511,32.09947746838805</coordinates></Point>
</Placemark>
, <Placemark>
<name>TP-LINK_E2EEFA</name>
<description>TP-LINK_E2EEFA</description>
<Point>
<coordinates>35.118873165768015,32.09896803749512</coordinates></Point>
</Placemark>
, <Placemark>
<name>portthru</name>
<description>portthru</description>
<Point>
<coordinates>35.118873165768015,32.09896803749512</coordinates></Point>
</Placemark>
, <Placemark>
<name></name>
<description></description>
<Point>
<coordinates>35.11786663587325,32.098460123639086</coordinates></Point>
</Placemark>
, <Placemark>
<name>TP-LINK_E2EEFA</name>
<description>TP-LINK_E2EEFA</description>
<Point>
<coordinates>35.11786663587325,32.098460123639086</coordinates></Point>
</Placemark>
, <Placemark>
<name></name>
<description></description>
<Point>
<coordinates>35.11786663587325,32.098460123639086</coordinates></Point>
</Placemark>
, <Placemark>
<name></name>
<description></description>
<Point>
<coordinates>35.116863199717336,32.09793951631757</coordinates></Point>
</Placemark>
, <Placemark>
<name></name>
<description></description>
<Point>
<coordinates>35.116863199717336,32.09793951631757</coordinates></Point>
</Placemark>
, <Placemark>
<name></name>
<description></description>
<Point>
<coordinates>35.11583897568272,32.09742801798865</coordinates></Point>
</Placemark>
, <Placemark>
<name></name>
<description></description>
<Point>
<coordinates>35.11481398171859,32.09689942759788</coordinates></Point>
</Placemark>
, <Placemark>
<name></name>
<description></description>
<Point>
<coordinates>35.11378323687735,32.096371557873304</coordinates></Point>
</Placemark>
, <Placemark>
<name></name>
<description></description>
<Point>
<coordinates>35.112750989517906,32.095836393362944</coordinates></Point>
</Placemark>
, <Placemark>
<name></name>
<description></description>
<Point>
<coordinates>35.11069430280701,32.094769869538304</coordinates></Point>
</Placemark>
, <Placemark>
<name></name>
<description></description>
<Point>
<coordinates>35.109639412929994,32.09426476712147</coordinates></Point>
</Placemark>
, <Placemark>
<name></name>
<description></description>
<Point>
<coordinates>35.10854225435142,32.093831589927966</coordinates></Point>
</Placemark>
, <Placemark>
<name></name>
<description></description>
<Point>
<coordinates>35.107423332588084,32.093470859633236</coordinates></Point>
</Placemark>
, <Placemark>
<name></name>
<description></description>
<Point>
<coordinates>35.10629108973255,32.093190676706556</coordinates></Point>
</Placemark>
, <Placemark>
<name></name>
<description></description>
<Point>
<coordinates>35.10515548501078,32.092994657220444</coordinates></Point>
</Placemark>
, <Placemark>
<name></name>
<description></description>
<Point>
<coordinates>35.10402643304773,32.09288013306226</coordinates></Point>
</Placemark>
, <Placemark>
<name>afikim-wifi</name>
<description>afikim-wifi</description>
<Point>
<coordinates>35.09190386874651,32.092458746393625</coordinates></Point>
</Placemark>
, <Placemark>
<name>afikim-wifi</name>
<description>afikim-wifi</description>
<Point>
<coordinates>35.09030329839525,32.09258928357141</coordinates></Point>
</Placemark>
, <Placemark>
<name>Coolnet-Hotspot</name>
<description>Coolnet-Hotspot</description>
<Point>
<coordinates>35.06765833405379,32.098448795980474</coordinates></Point>
</Placemark>
, <Placemark>
<name>WIFI-FUTURE 1</name>
<description>WIFI-FUTURE 1</description>
<Point>
<coordinates>35.06765833405379,32.098448795980474</coordinates></Point>
</Placemark>
, <Placemark>
<name>Coolnet-Hotspot</name>
<description>Coolnet-Hotspot</description>
<Point>
<coordinates>35.0665363851559,32.09874202634039</coordinates></Point>
</Placemark>
, <Placemark>
<name>WIFI-FUTURE 1</name>
<description>WIFI-FUTURE 1</description>
<Point>
<coordinates>35.0665363851559,32.09874202634039</coordinates></Point>
</Placemark>
, <Placemark>
<name>YICarCam_00c234</name>
<description>YICarCam_00c234</description>
<Point>
<coordinates>35.06540120804168,32.09905397904093</coordinates></Point>
</Placemark>
, <Placemark>
<name>Coolnet-Hotspot</name>
<description>Coolnet-Hotspot</description>
<Point>
<coordinates>35.06540120804168,32.09905397904093</coordinates></Point>
</Placemark>
, <Placemark>
<name>WIFI-FUTURE 1</name>
<description>WIFI-FUTURE 1</description>
<Point>
<coordinates>35.06540120804168,32.09905397904093</coordinates></Point>
</Placemark>
, <Placemark>
<name>Coolnet-Hotspot</name>
<description>Coolnet-Hotspot</description>
<Point>
<coordinates>35.064251415545556,32.09937404282381</coordinates></Point>
</Placemark>
, <Placemark>
<name>YICarCam_00c234</name>
<description>YICarCam_00c234</description>
<Point>
<coordinates>35.064251415545556,32.09937404282381</coordinates></Point>
</Placemark>
, <Placemark>
<name>Coolnet-Hotspot</name>
<description>Coolnet-Hotspot</description>
<Point>
<coordinates>35.063095840602465,32.09964379607013</coordinates></Point>
</Placemark>
, <Placemark>
<name>YICarCam_00c234</name>
<description>YICarCam_00c234</description>
<Point>
<coordinates>35.063095840602465,32.09964379607013</coordinates></Point>
</Placemark>
, <Placemark>
<name>Coolnet-Hotspot</name>
<description>Coolnet-Hotspot</description>
<Point>
<coordinates>35.061927354896795,32.09988696510045</coordinates></Point>
</Placemark>
, <Placemark>
<name>YICarCam_00c234</name>
<description>YICarCam_00c234</description>
<Point>
<coordinates>35.061927354896795,32.09988696510045</coordinates></Point>
</Placemark>
, <Placemark>
<name>Coolnet-Hotspot</name>
<description>Coolnet-Hotspot</description>
<Point>
<coordinates>35.0585006923185,32.10063000080419</coordinates></Point>
</Placemark>
, <Placemark>
<name>Coolnet-Hotspot</name>
<description>Coolnet-Hotspot</description>
<Point>
<coordinates>35.05742531403064,32.10087138123292</coordinates></Point>
</Placemark>
, <Placemark>
<name>Coolnet-Hotspot</name>
<description>Coolnet-Hotspot</description>
<Point>
<coordinates>35.056379592651595,32.1011017399657</coordinates></Point>
</Placemark>
, <Placemark>
<name>afikim-wifi</name>
<description>afikim-wifi</description>
<Point>
<coordinates>35.055353348040725,32.10132240999128</coordinates></Point>
</Placemark>
, <Placemark>
<name>afikim-wifi</name>
<description>afikim-wifi</description>
<Point>
<coordinates>35.05433415477947,32.10153642269835</coordinates></Point>
</Placemark>
, <Placemark>
<name>afikim-wifi</name>
<description>afikim-wifi</description>
<Point>
<coordinates>35.05331635278144,32.10175157125847</coordinates></Point>
</Placemark>
, <Placemark>
<name></name>
<description></description>
<Point>
<coordinates>35.052294630849445,32.10197502972151</coordinates></Point>
</Placemark>
, <Placemark>
<name>Afikim_Wifi</name>
<description>Afikim_Wifi</description>
<Point>
<coordinates>35.052294630849445,32.10197502972151</coordinates></Point>
</Placemark>
, <Placemark>
<name>Coolnet-Hotspot</name>
<description>Coolnet-Hotspot</description>
<Point>
<coordinates>35.05126465674943,32.10219205354704</coordinates></Point>
</Placemark>
, <Placemark>
<name>GalgaVilla</name>
<description>GalgaVilla</description>
<Point>
<coordinates>35.05126465674943,32.10219205354704</coordinates></Point>
</Placemark>
, <Placemark>
<name></name>
<description></description>
<Point>
<coordinates>35.05126465674943,32.10219205354704</coordinates></Point>
</Placemark>
, <Placemark>
<name>Afikim_Wifi</name>
<description>Afikim_Wifi</description>
<Point>
<coordinates>35.05126465674943,32.10219205354704</coordinates></Point>
</Placemark>
, <Placemark>
<name>Coolnet-Hotspot</name>
<description>Coolnet-Hotspot</description>
<Point>
<coordinates>35.05024147319113,32.10240717578697</coordinates></Point>
</Placemark>
, <Placemark>
<name>GalgaVilla</name>
<description>GalgaVilla</description>
<Point>
<coordinates>35.05024147319113,32.10240717578697</coordinates></Point>
</Placemark>
, <Placemark>
<name></name>
<description></description>
<Point>
<coordinates>35.05024147319113,32.10240717578697</coordinates></Point>
</Placemark>
, <Placemark>
<name>Afikim_Wifi</name>
<description>Afikim_Wifi</description>
<Point>
<coordinates>35.05024147319113,32.10240717578697</coordinates></Point>
</Placemark>
, <Placemark>
<name>Coolnet-Hotspot</name>
<description>Coolnet-Hotspot</description>
<Point>
<coordinates>35.04920887690333,32.10257526774685</coordinates></Point>
</Placemark>
, <Placemark>
<name>GalgaVilla</name>
<description>GalgaVilla</description>
<Point>
<coordinates>35.04920887690333,32.10257526774685</coordinates></Point>
</Placemark>
, <Placemark>
<name></name>
<description></description>
<Point>
<coordinates>35.04920887690333,32.10257526774685</coordinates></Point>
</Placemark>
, <Placemark>
<name>mada</name>
<description>mada</description>
<Point>
<coordinates>35.04920887690333,32.10257526774685</coordinates></Point>
</Placemark>
, <Placemark>
<name>Coolnet-Hotspot</name>
<description>Coolnet-Hotspot</description>
<Point>
<coordinates>35.04814576435801,32.10266838612041</coordinates></Point>
</Placemark>
, <Placemark>
<name>mada</name>
<description>mada</description>
<Point>
<coordinates>35.04814576435801,32.10266838612041</coordinates></Point>
</Placemark>
, <Placemark>
<name>mada</name>
<description>mada</description>
<Point>
<coordinates>35.047069219635226,32.102619787014795</coordinates></Point>
</Placemark>
, <Placemark>
<name>WIFI-FUTURE 1</name>
<description>WIFI-FUTURE 1</description>
<Point>
<coordinates>35.04599752723636,32.10245847957555</coordinates></Point>
</Placemark>
, <Placemark>
<name>WIFI-FUTURE 4</name>
<description>WIFI-FUTURE 4</description>
<Point>
<coordinates>35.04599752723636,32.10245847957555</coordinates></Point>
</Placemark>
, <Placemark>
<name>SIEMENS-899003</name>
<description>SIEMENS-899003</description>
<Point>
<coordinates>35.04599752723636,32.10245847957555</coordinates></Point>
</Placemark>
, <Placemark>
<name>WIFI-FUTURE 1</name>
<description>WIFI-FUTURE 1</description>
<Point>
<coordinates>35.04494851285768,32.10216042942752</coordinates></Point>
</Placemark>
, <Placemark>
<name>WIFI-FUTURE 4</name>
<description>WIFI-FUTURE 4</description>
<Point>
<coordinates>35.04494851285768,32.10216042942752</coordinates></Point>
</Placemark>
, <Placemark>
<name>SIEMENS-899003</name>
<description>SIEMENS-899003</description>
<Point>
<coordinates>35.04494851285768,32.10216042942752</coordinates></Point>
</Placemark>
, <Placemark>
<name>lolo </name>
<description>lolo </description>
<Point>
<coordinates>35.04494851285768,32.10216042942752</coordinates></Point>
</Placemark>
, <Placemark>
<name>SIEMENS-899003</name>
<description>SIEMENS-899003</description>
<Point>
<coordinates>35.04391827208446,32.10176090900466</coordinates></Point>
</Placemark>
, <Placemark>
<name>WIFI-FUTURE 4</name>
<description>WIFI-FUTURE 4</description>
<Point>
<coordinates>35.04391827208446,32.10176090900466</coordinates></Point>
</Placemark>
, <Placemark>
<name>lolo </name>
<description>lolo </description>
<Point>
<coordinates>35.04391827208446,32.10176090900466</coordinates></Point>
</Placemark>
, <Placemark>
<name>WIFI-FUTURE 1</name>
<description>WIFI-FUTURE 1</description>
<Point>
<coordinates>35.04391827208446,32.10176090900466</coordinates></Point>
</Placemark>
, <Placemark>
<name>WI-FI- FUTURE 0599069018 2</name>
<description>WI-FI- FUTURE 0599069018 2</description>
<Point>
<coordinates>35.04391827208446,32.10176090900466</coordinates></Point>
</Placemark>
, <Placemark>
<name>WIFI-FUTURE 4</name>
<description>WIFI-FUTURE 4</description>
<Point>
<coordinates>35.042886673674126,32.10138559471972</coordinates></Point>
</Placemark>
, <Placemark>
<name>lolo </name>
<description>lolo </description>
<Point>
<coordinates>35.042886673674126,32.10138559471972</coordinates></Point>
</Placemark>
, <Placemark>
<name>WIFI-FUTURE 1</name>
<description>WIFI-FUTURE 1</description>
<Point>
<coordinates>35.042886673674126,32.10138559471972</coordinates></Point>
</Placemark>
, <Placemark>
<name>WI-FI- FUTURE 0599069018 2</name>
<description>WI-FI- FUTURE 0599069018 2</description>
<Point>
<coordinates>35.042886673674126,32.10138559471972</coordinates></Point>
</Placemark>
, <Placemark>
<name>WIFI-FUTURE 4</name>
<description>WIFI-FUTURE 4</description>
<Point>
<coordinates>35.041866676525544,32.10102053598763</coordinates></Point>
</Placemark>
, <Placemark>
<name>WIFI-FUTURE 1</name>
<description>WIFI-FUTURE 1</description>
<Point>
<coordinates>35.041866676525544,32.10102053598763</coordinates></Point>
</Placemark>
, <Placemark>
<name>WI-FI- FUTURE 0599069018 2</name>
<description>WI-FI- FUTURE 0599069018 2</description>
<Point>
<coordinates>35.041866676525544,32.10102053598763</coordinates></Point>
</Placemark>
, <Placemark>
<name>WIFI-FUTURE 1</name>
<description>WIFI-FUTURE 1</description>
<Point>
<coordinates>35.040844562708656,32.10068209604275</coordinates></Point>
</Placemark>
, <Placemark>
<name>WIFI-FUTURE 4</name>
<description>WIFI-FUTURE 4</description>
<Point>
<coordinates>35.039778620244306,32.10045210089789</coordinates></Point>
</Placemark>
, <Placemark>
<name>WIFI-FUTURE 1</name>
<description>WIFI-FUTURE 1</description>
<Point>
<coordinates>35.039778620244306,32.10045210089789</coordinates></Point>
</Placemark>
, <Placemark>
<name>WIFI-FUTURE ISMAEL</name>
<description>WIFI-FUTURE ISMAEL</description>
<Point>
<coordinates>35.039778620244306,32.10045210089789</coordinates></Point>
</Placemark>
, <Placemark>
<name>WIFI-FUTURE 4</name>
<description>WIFI-FUTURE 4</description>
<Point>
<coordinates>35.038670530874086,32.100352467699004</coordinates></Point>
</Placemark>
, <Placemark>
<name>WIFI-FUTURE 1</name>
<description>WIFI-FUTURE 1</description>
<Point>
<coordinates>35.038670530874086,32.100352467699004</coordinates></Point>
</Placemark>
, <Placemark>
<name>WIFI-FUTURE ISMAEL</name>
<description>WIFI-FUTURE ISMAEL</description>
<Point>
<coordinates>35.038670530874086,32.100352467699004</coordinates></Point>
</Placemark>
, <Placemark>
<name>WIFI-FUTURE 4</name>
<description>WIFI-FUTURE 4</description>
<Point>
<coordinates>35.03756373000389,32.10038731581187</coordinates></Point>
</Placemark>
, <Placemark>
<name>WIFI-FUTURE ISMAEL</name>
<description>WIFI-FUTURE ISMAEL</description>
<Point>
<coordinates>35.03756373000389,32.10038731581187</coordinates></Point>
</Placemark>
, <Placemark>
<name>WIFI-FUTURE 4</name>
<description>WIFI-FUTURE 4</description>
<Point>
<coordinates>35.03647738543313,32.10056295567061</coordinates></Point>
</Placemark>
, <Placemark>
<name>WIFI-FUTURE ISMAEL</name>
<description>WIFI-FUTURE ISMAEL</description>
<Point>
<coordinates>35.03647738543313,32.10056295567061</coordinates></Point>
</Placemark>
, <Placemark>
<name>WIFI-FUTURE 4</name>
<description>WIFI-FUTURE 4</description>
<Point>
<coordinates>35.0354134290833,32.10083956713301</coordinates></Point>
</Placemark>
, <Placemark>
<name>WI-FI- FUTURE 0599069018</name>
<description>WI-FI- FUTURE 0599069018</description>
<Point>
<coordinates>35.032503077450286,32.102239705915096</coordinates></Point>
</Placemark>
, <Placemark>
<name>WI-FI- FUTURE 0599069018</name>
<description>WI-FI- FUTURE 0599069018</description>
<Point>
<coordinates>35.03060809084802,32.103244158090696</coordinates></Point>
</Placemark>
, <Placemark>
<name>WI-FI- FUTURE 0599069018</name>
<description>WI-FI- FUTURE 0599069018</description>
<Point>
<coordinates>35.02872363148067,32.10425902607889</coordinates></Point>
</Placemark>
, <Placemark>
<name>WI-FI- FUTURE 0599069018 2</name>
<description>WI-FI- FUTURE 0599069018 2</description>
<Point>
<coordinates>35.02488867981681,32.10624257285837</coordinates></Point>
</Placemark>
, <Placemark>
<name>WI-FI- FUTURE 0599069018 2</name>
<description>WI-FI- FUTURE 0599069018 2</description>
<Point>
<coordinates>35.022907899328374,32.10709667320555</coordinates></Point>
</Placemark>
, <Placemark>
<name>Partner-4G-s</name>
<description>Partner-4G-s</description>
<Point>
<coordinates>35.02073053970122,32.107531920627366</coordinates></Point>
</Placemark>
, <Placemark>
<name>Schachter</name>
<description>Schachter</description>
<Point>
<coordinates>35.019603009877834,32.10767820744396</coordinates></Point>
</Placemark>
, <Placemark>
<name>Partner-4G-s</name>
<description>Partner-4G-s</description>
<Point>
<coordinates>35.019603009877834,32.10767820744396</coordinates></Point>
</Placemark>
, <Placemark>
<name>yomtob</name>
<description>yomtob</description>
<Point>
<coordinates>35.019603009877834,32.10767820744396</coordinates></Point>
</Placemark>
, <Placemark>
<name>Schachter</name>
<description>Schachter</description>
<Point>
<coordinates>35.01846743196951,32.10782574965284</coordinates></Point>
</Placemark>
, <Placemark>
<name>Fishers</name>
<description>Fishers</description>
<Point>
<coordinates>35.01846743196951,32.10782574965284</coordinates></Point>
</Placemark>
, <Placemark>
<name>Partner-4G-s</name>
<description>Partner-4G-s</description>
<Point>
<coordinates>35.01846743196951,32.10782574965284</coordinates></Point>
</Placemark>
, <Placemark>
<name>yomtob</name>
<description>yomtob</description>
<Point>
<coordinates>35.01846743196951,32.10782574965284</coordinates></Point>
</Placemark>
, <Placemark>
<name>Partner-4G-7F88</name>
<description>Partner-4G-7F88</description>
<Point>
<coordinates>35.01846743196951,32.10782574965284</coordinates></Point>
</Placemark>
, <Placemark>
<name>akavya17</name>
<description>akavya17</description>
<Point>
<coordinates>35.01846743196951,32.10782574965284</coordinates></Point>
</Placemark>
, <Placemark>
<name>BezeqFree</name>
<description>BezeqFree</description>
<Point>
<coordinates>35.01846743196951,32.10782574965284</coordinates></Point>
</Placemark>
, <Placemark>
<name>Schachter</name>
<description>Schachter</description>
<Point>
<coordinates>35.01733996024728,32.1079725177645</coordinates></Point>
</Placemark>
, <Placemark>
<name>Fishers</name>
<description>Fishers</description>
<Point>
<coordinates>35.01733996024728,32.1079725177645</coordinates></Point>
</Placemark>
, <Placemark>
<name>yomtob</name>
<description>yomtob</description>
<Point>
<coordinates>35.01733996024728,32.1079725177645</coordinates></Point>
</Placemark>
, <Placemark>
<name>Partner-4G-7F88</name>
<description>Partner-4G-7F88</description>
<Point>
<coordinates>35.01733996024728,32.1079725177645</coordinates></Point>
</Placemark>
, <Placemark>
<name>akavya17</name>
<description>akavya17</description>
<Point>
<coordinates>35.01733996024728,32.1079725177645</coordinates></Point>
</Placemark>
, <Placemark>
<name>BezeqFree</name>
<description>BezeqFree</description>
<Point>
<coordinates>35.01733996024728,32.1079725177645</coordinates></Point>
</Placemark>
, <Placemark>
<name>Fishers</name>
<description>Fishers</description>
<Point>
<coordinates>35.01624201949733,32.10809936856781</coordinates></Point>
</Placemark>
, <Placemark>
<name>Partner-4G-7F88</name>
<description>Partner-4G-7F88</description>
<Point>
<coordinates>35.01624201949733,32.10809936856781</coordinates></Point>
</Placemark>
, <Placemark>
<name>akavya17</name>
<description>akavya17</description>
<Point>
<coordinates>35.01624201949733,32.10809936856781</coordinates></Point>
</Placemark>
, <Placemark>
<name>BezeqFree</name>
<description>BezeqFree</description>
<Point>
<coordinates>35.01624201949733,32.10809936856781</coordinates></Point>
</Placemark>
, <Placemark>
<name>iPhone</name>
<description>iPhone</description>
<Point>
<coordinates>35.00826084416007,32.10785273649647</coordinates></Point>
</Placemark>
, <Placemark>
<name>DIRECT-7C-HP DeskJet 3830 series</name>
<description>DIRECT-7C-HP DeskJet 3830 series</description>
<Point>
<coordinates>35.0077967377345,32.10780841844724</coordinates></Point>
</Placemark>
, <Placemark>
<name>Mazoz</name>
<description>Mazoz</description>
<Point>
<coordinates>34.977181932513226,32.101918519486425</coordinates></Point>
</Placemark>
, <Placemark>
<name>Mazoz</name>
<description>Mazoz</description>
<Point>
<coordinates>34.97613202265579,32.101956309954176</coordinates></Point>
</Placemark>
, <Placemark>
<name>Mazoz</name>
<description>Mazoz</description>
<Point>
<coordinates>34.97510859745572,32.102011860390085</coordinates></Point>
</Placemark>
, <Placemark>
<name></name>
<description></description>
<Point>
<coordinates>34.97087967226762,32.10274151316172</coordinates></Point>
</Placemark>
, <Placemark>
<name>135</name>
<description>135</description>
<Point>
<coordinates>34.97087967226762,32.10274151316172</coordinates></Point>
</Placemark>
, <Placemark>
<name></name>
<description></description>
<Point>
<coordinates>34.96898431647211,32.10340043922176</coordinates></Point>
</Placemark>
, <Placemark>
<name>135</name>
<description>135</description>
<Point>
<coordinates>34.96898431647211,32.10340043922176</coordinates></Point>
</Placemark>
, <Placemark>
<name>office</name>
<description>office</description>
<Point>
<coordinates>34.96712731302253,32.104271975590244</coordinates></Point>
</Placemark>
, <Placemark>
<name>repeater from office</name>
<description>repeater from office</description>
<Point>
<coordinates>34.96621012190405,32.104775329500974</coordinates></Point>
</Placemark>
, <Placemark>
<name>office</name>
<description>office</description>
<Point>
<coordinates>34.9653025801917,32.10532281891627</coordinates></Point>
</Placemark>
, <Placemark>
<name>repeater from office</name>
<description>repeater from office</description>
<Point>
<coordinates>34.96439871832334,32.10588376120168</coordinates></Point>
</Placemark>
, <Placemark>
<name>ultra_lab</name>
<description>ultra_lab</description>
<Point>
<coordinates>34.96350826575432,32.10643557579226</coordinates></Point>
</Placemark>
, <Placemark>
<name>System_PC</name>
<description>System_PC</description>
<Point>
<coordinates>34.96350826575432,32.10643557579226</coordinates></Point>
</Placemark>
, <Placemark>
<name>Partner</name>
<description>Partner</description>
<Point>
<coordinates>34.96350826575432,32.10643557579226</coordinates></Point>
</Placemark>
, <Placemark>
<name>ultra_lab_portal</name>
<description>ultra_lab_portal</description>
<Point>
<coordinates>34.96350826575432,32.10643557579226</coordinates></Point>
</Placemark>
, <Placemark>
<name>ultra_lab_portal</name>
<description>ultra_lab_portal</description>
<Point>
<coordinates>34.96350826575432,32.10643557579226</coordinates></Point>
</Placemark>
, <Placemark>
<name>Partner_Wi</name>
<description>Partner_Wi</description>
<Point>
<coordinates>34.96350826575432,32.10643557579226</coordinates></Point>
</Placemark>
, <Placemark>
<name>Partner</name>
<description>Partner</description>
<Point>
<coordinates>34.96350826575432,32.10643557579226</coordinates></Point>
</Placemark>
, <Placemark>
<name>Orange-4G</name>
<description>Orange-4G</description>
<Point>
<coordinates>34.96350826575432,32.10643557579226</coordinates></Point>
</Placemark>
, <Placemark>
<name>Partner_Wi</name>
<description>Partner_Wi</description>
<Point>
<coordinates>34.96350826575432,32.10643557579226</coordinates></Point>
</Placemark>
, <Placemark>
<name>Partner_Guest</name>
<description>Partner_Guest</description>
<Point>
<coordinates>34.96350826575432,32.10643557579226</coordinates></Point>
</Placemark>
, <Placemark>
<name>office</name>
<description>office</description>
<Point>
<coordinates>34.962627270042596,32.106988037296205</coordinates></Point>
</Placemark>
, <Placemark>
<name>WiPG-1000</name>
<description>WiPG-1000</description>
<Point>
<coordinates>34.962627270042596,32.106988037296205</coordinates></Point>
</Placemark>
, <Placemark>
<name>WiPG-1000</name>
<description>WiPG-1000</description>
<Point>
<coordinates>34.962627270042596,32.106988037296205</coordinates></Point>
</Placemark>
, <Placemark>
<name>lishka_wifi</name>
<description>lishka_wifi</description>
<Point>
<coordinates>34.962627270042596,32.106988037296205</coordinates></Point>
</Placemark>
, <Placemark>
<name>ultra_lab</name>
<description>ultra_lab</description>
<Point>
<coordinates>34.962627270042596,32.106988037296205</coordinates></Point>
</Placemark>
, <Placemark>
<name>ultra_lab_portal</name>
<description>ultra_lab_portal</description>
<Point>
<coordinates>34.962627270042596,32.106988037296205</coordinates></Point>
</Placemark>
, <Placemark>
<name>acseess for camera</name>
<description>acseess for camera</description>
<Point>
<coordinates>34.96174050869963,32.10753711751509</coordinates></Point>
</Placemark>
, <Placemark>
<name>ultra_lab</name>
<description>ultra_lab</description>
<Point>
<coordinates>34.96174050869963,32.10753711751509</coordinates></Point>
</Placemark>
, <Placemark>
<name>System_PC</name>
<description>System_PC</description>
<Point>
<coordinates>34.96174050869963,32.10753711751509</coordinates></Point>
</Placemark>
, <Placemark>
<name>ultra_lab_portal</name>
<description>ultra_lab_portal</description>
<Point>
<coordinates>34.96174050869963,32.10753711751509</coordinates></Point>
</Placemark>
, <Placemark>
<name>Partner</name>
<description>Partner</description>
<Point>
<coordinates>34.96174050869963,32.10753711751509</coordinates></Point>
</Placemark>
, <Placemark>
<name>Partner</name>
<description>Partner</description>
<Point>
<coordinates>34.96174050869963,32.10753711751509</coordinates></Point>
</Placemark>
, <Placemark>
<name>Orange-4G</name>
<description>Orange-4G</description>
<Point>
<coordinates>34.96174050869963,32.10753711751509</coordinates></Point>
</Placemark>
, <Placemark>
<name>Partner_Wi</name>
<description>Partner_Wi</description>
<Point>
<coordinates>34.96174050869963,32.10753711751509</coordinates></Point>
</Placemark>
, <Placemark>
<name>Partner_Wi</name>
<description>Partner_Wi</description>
<Point>
<coordinates>34.96174050869963,32.10753711751509</coordinates></Point>
</Placemark>
, <Placemark>
<name>Orange-4G</name>
<description>Orange-4G</description>
<Point>
<coordinates>34.96174050869963,32.10753711751509</coordinates></Point>
</Placemark>
, <Placemark>
<name>office</name>
<description>office</description>
<Point>
<coordinates>34.960873992133564,32.10810252911579</coordinates></Point>
</Placemark>
, <Placemark>
<name>WiPG-1000</name>
<description>WiPG-1000</description>
<Point>
<coordinates>34.960873992133564,32.10810252911579</coordinates></Point>
</Placemark>
, <Placemark>
<name>WiPG-1000</name>
<description>WiPG-1000</description>
<Point>
<coordinates>34.960873992133564,32.10810252911579</coordinates></Point>
</Placemark>
, <Placemark>
<name>lishka_wifi</name>
<description>lishka_wifi</description>
<Point>
<coordinates>34.960873992133564,32.10810252911579</coordinates></Point>
</Placemark>
, <Placemark>
<name>Security</name>
<description>Security</description>
<Point>
<coordinates>34.960873992133564,32.10810252911579</coordinates></Point>
</Placemark>
, <Placemark>
<name>ultra_lab</name>
<description>ultra_lab</description>
<Point>
<coordinates>34.960873992133564,32.10810252911579</coordinates></Point>
</Placemark>
, <Placemark>
<name>ultra_lab_portal</name>
<description>ultra_lab_portal</description>
<Point>
<coordinates>34.960873992133564,32.10810252911579</coordinates></Point>
</Placemark>
, <Placemark>
<name>acseess for camera</name>
<description>acseess for camera</description>
<Point>
<coordinates>34.95997786848979,32.108658663706</coordinates></Point>
</Placemark>
, <Placemark>
<name>Pub-2.4</name>
<description>Pub-2.4</description>
<Point>
<coordinates>34.95997786848979,32.108658663706</coordinates></Point>
</Placemark>
, <Placemark>
<name>office</name>
<description>office</description>
<Point>
<coordinates>34.95907039387213,32.10922143581972</coordinates></Point>
</Placemark>
, <Placemark>
<name>camera</name>
<description>camera</description>
<Point>
<coordinates>34.95907039387213,32.10922143581972</coordinates></Point>
</Placemark>
, <Placemark>
<name>Security</name>
<description>Security</description>
<Point>
<coordinates>34.95907039387213,32.10922143581972</coordinates></Point>
</Placemark>
, <Placemark>
<name>acseess for camera</name>
<description>acseess for camera</description>
<Point>
<coordinates>34.95818391183551,32.10979011102722</coordinates></Point>
</Placemark>
, <Placemark>
<name>Einat</name>
<description>Einat</description>
<Point>
<coordinates>34.95818391183551,32.10979011102722</coordinates></Point>
</Placemark>
, <Placemark>
<name>camera</name>
<description>camera</description>
<Point>
<coordinates>34.95730560788647,32.11034334196653</coordinates></Point>
</Placemark>
, <Placemark>
<name>office</name>
<description>office</description>
<Point>
<coordinates>34.95730560788647,32.11034334196653</coordinates></Point>
</Placemark>
, <Placemark>
<name>Security</name>
<description>Security</description>
<Point>
<coordinates>34.95730560788647,32.11034334196653</coordinates></Point>
</Placemark>
, <Placemark>
<name>acseess for camera</name>
<description>acseess for camera</description>
<Point>
<coordinates>34.956453538238655,32.1108926936285</coordinates></Point>
</Placemark>
, <Placemark>
<name>Einat</name>
<description>Einat</description>
<Point>
<coordinates>34.956453538238655,32.1108926936285</coordinates></Point>
</Placemark>
, <Placemark>
<name>repeater from office</name>
<description>repeater from office</description>
<Point>
<coordinates>34.956453538238655,32.1108926936285</coordinates></Point>
</Placemark>
, <Placemark>
<name>office</name>
<description>office</description>
<Point>
<coordinates>34.95561248677379,32.11140591137693</coordinates></Point>
</Placemark>
, <Placemark>
<name>Shaul</name>
<description>Shaul</description>
<Point>
<coordinates>34.95561248677379,32.11140591137693</coordinates></Point>
</Placemark>
, <Placemark>
<name>albert_2.4</name>
<description>albert_2.4</description>
<Point>
<coordinates>34.95561248677379,32.11140591137693</coordinates></Point>
</Placemark>
, <Placemark>
<name>Bezeq_3dd691</name>
<description>Bezeq_3dd691</description>
<Point>
<coordinates>34.95474278233341,32.111830994461556</coordinates></Point>
</Placemark>
, <Placemark>
<name>Kornit</name>
<description>Kornit</description>
<Point>
<coordinates>34.95474278233341,32.111830994461556</coordinates></Point>
</Placemark>
, <Placemark>
<name>repeater from office</name>
<description>repeater from office</description>
<Point>
<coordinates>34.95474278233341,32.111830994461556</coordinates></Point>
</Placemark>
, <Placemark>
<name>Shaul</name>
<description>Shaul</description>
<Point>
<coordinates>34.95384454799558,32.11219195995223</coordinates></Point>
</Placemark>
, <Placemark>
<name>albert_2.4</name>
<description>albert_2.4</description>
<Point>
<coordinates>34.95384454799558,32.11219195995223</coordinates></Point>
</Placemark>
, <Placemark>
<name>Bezeq_3dd691</name>
<description>Bezeq_3dd691</description>
<Point>
<coordinates>34.95291923483816,32.11248307111298</coordinates></Point>
</Placemark>
, <Placemark>
<name>Kornit</name>
<description>Kornit</description>
<Point>
<coordinates>34.95291923483816,32.11248307111298</coordinates></Point>
</Placemark>
, <Placemark>
<name>repeater from office</name>
<description>repeater from office</description>
<Point>
<coordinates>34.95291923483816,32.11248307111298</coordinates></Point>
</Placemark>
, <Placemark>
<name>acseess for camera</name>
<description>acseess for camera</description>
<Point>
<coordinates>34.95200824283561,32.11277268202303</coordinates></Point>
</Placemark>
, <Placemark>
<name>acseess for camera</name>
<description>acseess for camera</description>
<Point>
<coordinates>34.951116010411354,32.11305516287548</coordinates></Point>
</Placemark>
, <Placemark>
<name>office</name>
<description>office</description>
<Point>
<coordinates>34.951116010411354,32.11305516287548</coordinates></Point>
</Placemark>
, <Placemark>
<name>Partner-4G-E69A</name>
<description>Partner-4G-E69A</description>
<Point>
<coordinates>34.951116010411354,32.11305516287548</coordinates></Point>
</Placemark>
, <Placemark>
<name>papaya5_5</name>
<description>papaya5_5</description>
<Point>
<coordinates>34.951116010411354,32.11305516287548</coordinates></Point>
</Placemark>
, <Placemark>
<name>repeater from office</name>
<description>repeater from office</description>
<Point>
<coordinates>34.951116010411354,32.11305516287548</coordinates></Point>
</Placemark>
, <Placemark>
<name>HUAWEI-FF6D</name>
<description>HUAWEI-FF6D</description>
<Point>
<coordinates>34.951116010411354,32.11305516287548</coordinates></Point>
</Placemark>
, <Placemark>
<name>m_h1986</name>
<description>m_h1986</description>
<Point>
<coordinates>34.951116010411354,32.11305516287548</coordinates></Point>
</Placemark>
, <Placemark>
<name>Emanul 01</name>
<description>Emanul 01</description>
<Point>
<coordinates>34.951116010411354,32.11305516287548</coordinates></Point>
</Placemark>
, <Placemark>
<name>papaya5</name>
<description>papaya5</description>
<Point>
<coordinates>34.951116010411354,32.11305516287548</coordinates></Point>
</Placemark>
, <Placemark>
<name>edimax_5G_9BA1F2</name>
<description>edimax_5G_9BA1F2</description>
<Point>
<coordinates>34.950237065541096,32.11334174831171</coordinates></Point>
</Placemark>
, <Placemark>
<name>office</name>
<description>office</description>
<Point>
<coordinates>34.94934905680539,32.11362490338034</coordinates></Point>
</Placemark>
, <Placemark>
<name>acseess for camera</name>
<description>acseess for camera</description>
<Point>
<coordinates>34.94934905680539,32.11362490338034</coordinates></Point>
</Placemark>
, <Placemark>
<name>Partner-4G-E69A</name>
<description>Partner-4G-E69A</description>
<Point>
<coordinates>34.94934905680539,32.11362490338034</coordinates></Point>
</Placemark>
, <Placemark>
<name>papaya5_5</name>
<description>papaya5_5</description>
<Point>
<coordinates>34.94934905680539,32.11362490338034</coordinates></Point>
</Placemark>
, <Placemark>
<name>HUAWEI-FF6D</name>
<description>HUAWEI-FF6D</description>
<Point>
<coordinates>34.94934905680539,32.11362490338034</coordinates></Point>
</Placemark>
, <Placemark>
<name>m_h1986</name>
<description>m_h1986</description>
<Point>
<coordinates>34.94934905680539,32.11362490338034</coordinates></Point>
</Placemark>
, <Placemark>
<name>Emanul 01</name>
<description>Emanul 01</description>
<Point>
<coordinates>34.94934905680539,32.11362490338034</coordinates></Point>
</Placemark>
, <Placemark>
<name>papaya5</name>
<description>papaya5</description>
<Point>
<coordinates>34.94934905680539,32.11362490338034</coordinates></Point>
</Placemark>
, <Placemark>
<name>edimax_5G_9BA1F2</name>
<description>edimax_5G_9BA1F2</description>
<Point>
<coordinates>34.94846842320423,32.113902027548185</coordinates></Point>
</Placemark>
, <Placemark>
<name>office</name>
<description>office</description>
<Point>
<coordinates>34.94761056077428,32.11415814061289</coordinates></Point>
</Placemark>
, <Placemark>
<name>repeater from office</name>
<description>repeater from office</description>
<Point>
<coordinates>34.94761056077428,32.11415814061289</coordinates></Point>
</Placemark>
, <Placemark>
<name>camera</name>
<description>camera</description>
<Point>
<coordinates>34.946749504616534,32.11441806540758</coordinates></Point>
</Placemark>
, <Placemark>
<name>office</name>
<description>office</description>
<Point>
<coordinates>34.94587211915473,32.114690443773036</coordinates></Point>
</Placemark>
, <Placemark>
<name>repeater from office</name>
<description>repeater from office</description>
<Point>
<coordinates>34.94587211915473,32.114690443773036</coordinates></Point>
</Placemark>
, <Placemark>
<name>acseess for camera</name>
<description>acseess for camera</description>
<Point>
<coordinates>34.94587211915473,32.114690443773036</coordinates></Point>
</Placemark>
, <Placemark>
<name>office</name>
<description>office</description>
<Point>
<coordinates>34.94498137449283,32.11497815053761</coordinates></Point>
</Placemark>
, <Placemark>
<name>repeater from office</name>
<description>repeater from office</description>
<Point>
<coordinates>34.94498137449283,32.11497815053761</coordinates></Point>
</Placemark>
, <Placemark>
<name>acseess for camera</name>
<description>acseess for camera</description>
<Point>
<coordinates>34.94498137449283,32.11497815053761</coordinates></Point>
</Placemark>
, <Placemark>
<name>camera</name>
<description>camera</description>
<Point>
<coordinates>34.94498137449283,32.11497815053761</coordinates></Point>
</Placemark>
, <Placemark>
<name>camera</name>
<description>camera</description>
<Point>
<coordinates>34.944079665928875,32.11526077778871</coordinates></Point>
</Placemark>
, <Placemark>
<name>office</name>
<description>office</description>
<Point>
<coordinates>34.943162475267904,32.115498493227356</coordinates></Point>
</Placemark>
, <Placemark>
<name>repeater from office</name>
<description>repeater from office</description>
<Point>
<coordinates>34.943162475267904,32.115498493227356</coordinates></Point>
</Placemark>
, <Placemark>
<name>acseess for camera</name>
<description>acseess for camera</description>
<Point>
<coordinates>34.943162475267904,32.115498493227356</coordinates></Point>
</Placemark>
, <Placemark>
<name>acseess for camera</name>
<description>acseess for camera</description>
<Point>
<coordinates>34.942235536840954,32.115695144238636</coordinates></Point>
</Placemark>
, <Placemark>
<name>camera</name>
<description>camera</description>
<Point>
<coordinates>34.942235536840954,32.115695144238636</coordinates></Point>
</Placemark>
, <Placemark>
<name>repeater from office</name>
<description>repeater from office</description>
<Point>
<coordinates>34.94130014757523,32.11586560997732</coordinates></Point>
</Placemark>
, <Placemark>
<name>office</name>
<description>office</description>
<Point>
<coordinates>34.94130014757523,32.11586560997732</coordinates></Point>
</Placemark>
, <Placemark>
<name>office</name>
<description>office</description>
<Point>
<coordinates>34.94034531194324,32.11598638173823</coordinates></Point>
</Placemark>
, <Placemark>
<name>camera</name>
<description>camera</description>
<Point>
<coordinates>34.94034531194324,32.11598638173823</coordinates></Point>
</Placemark>
, <Placemark>
<name>acseess for camera</name>
<description>acseess for camera</description>
<Point>
<coordinates>34.94034531194324,32.11598638173823</coordinates></Point>
</Placemark>
, <Placemark>
<name>repeater from office</name>
<description>repeater from office</description>
<Point>
<coordinates>34.93936407473076,32.11603375505264</coordinates></Point>
</Placemark>
, <Placemark>
<name></name>
<description></description>
<Point>
<coordinates>34.93936407473076,32.11603375505264</coordinates></Point>
</Placemark>
, <Placemark>
<name>office</name>
<description>office</description>
<Point>
<coordinates>34.938362880382726,32.11607742090243</coordinates></Point>
</Placemark>
, <Placemark>
<name>repeater from office</name>
<description>repeater from office</description>
<Point>
<coordinates>34.938362880382726,32.11607742090243</coordinates></Point>
</Placemark>
, <Placemark>
<name>camera</name>
<description>camera</description>
<Point>
<coordinates>34.938362880382726,32.11607742090243</coordinates></Point>
</Placemark>
, <Placemark>
<name>acseess for camera</name>
<description>acseess for camera</description>
<Point>
<coordinates>34.938362880382726,32.11607742090243</coordinates></Point>
</Placemark>
, <Placemark>
<name></name>
<description></description>
<Point>
<coordinates>34.938362880382726,32.11607742090243</coordinates></Point>
</Placemark>
, <Placemark>
<name>repeater from office</name>
<description>repeater from office</description>
<Point>
<coordinates>34.937344667634854,32.11611107076001</coordinates></Point>
</Placemark>
, <Placemark>
<name>camera</name>
<description>camera</description>
<Point>
<coordinates>34.937344667634854,32.11611107076001</coordinates></Point>
</Placemark>
, <Placemark>
<name>office</name>
<description>office</description>
<Point>
<coordinates>34.937344667634854,32.11611107076001</coordinates></Point>
</Placemark>
, <Placemark>
<name>acseess for camera</name>
<description>acseess for camera</description>
<Point>
<coordinates>34.937344667634854,32.11611107076001</coordinates></Point>
</Placemark>
, <Placemark>
<name></name>
<description></description>
<Point>
<coordinates>34.937344667634854,32.11611107076001</coordinates></Point>
</Placemark>
, <Placemark>
<name>office</name>
<description>office</description>
<Point>
<coordinates>34.9363200081501,32.11614229118589</coordinates></Point>
</Placemark>
, <Placemark>
<name>repeater from office</name>
<description>repeater from office</description>
<Point>
<coordinates>34.9363200081501,32.11614229118589</coordinates></Point>
</Placemark>
, <Placemark>
<name>acseess for camera</name>
<description>acseess for camera</description>
<Point>
<coordinates>34.9363200081501,32.11614229118589</coordinates></Point>
</Placemark>
, <Placemark>
<name>camera</name>
<description>camera</description>
<Point>
<coordinates>34.9363200081501,32.11614229118589</coordinates></Point>
</Placemark>
, <Placemark>
<name></name>
<description></description>
<Point>
<coordinates>34.9363200081501,32.11614229118589</coordinates></Point>
</Placemark>
, <Placemark>
<name>repeater from office</name>
<description>repeater from office</description>
<Point>
<coordinates>34.93530598218904,32.11616695511208</coordinates></Point>
</Placemark>
, <Placemark>
<name>office</name>
<description>office</description>
<Point>
<coordinates>34.93530598218904,32.11616695511208</coordinates></Point>
</Placemark>
, <Placemark>
<name>camera</name>
<description>camera</description>
<Point>
<coordinates>34.93530598218904,32.11616695511208</coordinates></Point>
</Placemark>
, <Placemark>
<name>acseess for camera</name>
<description>acseess for camera</description>
<Point>
<coordinates>34.93530598218904,32.11616695511208</coordinates></Point>
</Placemark>
, <Placemark>
<name>acseess for camera</name>
<description>acseess for camera</description>
<Point>
<coordinates>34.934322657109384,32.11620329688375</coordinates></Point>
</Placemark>
, <Placemark>
<name>repeater from office</name>
<description>repeater from office</description>
<Point>
<coordinates>34.933347066429675,32.116240382290435</coordinates></Point>
</Placemark>
, <Placemark>
<name>office</name>
<description>office</description>
<Point>
<coordinates>34.933347066429675,32.116240382290435</coordinates></Point>
</Placemark>
, <Placemark>
<name>camera</name>
<description>camera</description>
<Point>
<coordinates>34.933347066429675,32.116240382290435</coordinates></Point>
</Placemark>
, <Placemark>
<name>acseess for camera</name>
<description>acseess for camera</description>
<Point>
<coordinates>34.93236468848103,32.11626749001071</coordinates></Point>
</Placemark>
, <Placemark>
<name>repeater from office</name>
<description>repeater from office</description>
<Point>
<coordinates>34.9314030367501,32.1163042456143</coordinates></Point>
</Placemark>
, <Placemark>
<name>office</name>
<description>office</description>
<Point>
<coordinates>34.9314030367501,32.1163042456143</coordinates></Point>
</Placemark>
, <Placemark>
<name>office</name>
<description>office</description>
<Point>
<coordinates>34.929538680765255,32.11639618705589</coordinates></Point>
</Placemark>
, <Placemark>
<name>office</name>
<description>office</description>
<Point>
<coordinates>34.92775223775106,32.11649417371507</coordinates></Point>
</Placemark>
, <Placemark>
<name>acseess for camera</name>
<description>acseess for camera</description>
<Point>
<coordinates>34.92775223775106,32.11649417371507</coordinates></Point>
</Placemark>
, <Placemark>
<name>office</name>
<description>office</description>
<Point>
<coordinates>34.92606055005866,32.11661018562205</coordinates></Point>
</Placemark>
, <Placemark>
<name>acseess for camera</name>
<description>acseess for camera</description>
<Point>
<coordinates>34.92606055005866,32.11661018562205</coordinates></Point>
</Placemark>
, <Placemark>
<name>office</name>
<description>office</description>
<Point>
<coordinates>34.92436291306223,32.11677797804038</coordinates></Point>
</Placemark>
, <Placemark>
<name>office</name>
<description>office</description>
<Point>
<coordinates>34.922700801050325,32.117093383962136</coordinates></Point>
</Placemark>